{
  "source": "app-wireguard-v1",
  "fetchedAt": "2026-03-21T01:02:22.979Z",
  "endpoint": "https://api.mullvad.net/public/relays/wireguard/v1/",
  "relayCount": 553,
  "countries": [
    {
      "code": "al",
      "name": "Albania",
      "cities": [
        {
          "code": "tia",
          "name": "Tirana",
          "relayCount": 2,
          "latitude": 41.327953,
          "longitude": 19.819025
        }
      ]
    },
    {
      "code": "ar",
      "name": "Argentina",
      "cities": [
        {
          "code": "bue",
          "name": "Buenos Aires",
          "relayCount": 2,
          "latitude": -34.474561,
          "longitude": -58.664522
        }
      ]
    },
    {
      "code": "at",
      "name": "Austria",
      "cities": [
        {
          "code": "vie",
          "name": "Vienna",
          "relayCount": 5,
          "latitude": 48.210033,
          "longitude": 16.363449
        }
      ]
    },
    {
      "code": "au",
      "name": "Australia",
      "cities": [
        {
          "code": "adl",
          "name": "Adelaide",
          "relayCount": 3,
          "latitude": -34.92123,
          "longitude": 138.599503
        },
        {
          "code": "bne",
          "name": "Brisbane",
          "relayCount": 3,
          "latitude": -27.471,
          "longitude": 153.0234
        },
        {
          "code": "mel",
          "name": "Melbourne",
          "relayCount": 3,
          "latitude": -37.815018,
          "longitude": 144.946014
        },
        {
          "code": "per",
          "name": "Perth",
          "relayCount": 2,
          "latitude": -31.953512,
          "longitude": 115.857048
        },
        {
          "code": "syd",
          "name": "Sydney",
          "relayCount": 11,
          "latitude": -33.861481,
          "longitude": 151.205475
        }
      ]
    },
    {
      "code": "be",
      "name": "Belgium",
      "cities": [
        {
          "code": "bru",
          "name": "Brussels",
          "relayCount": 3,
          "latitude": 50.833333,
          "longitude": 4.333333
        }
      ]
    },
    {
      "code": "bg",
      "name": "Bulgaria",
      "cities": [
        {
          "code": "sof",
          "name": "Sofia",
          "relayCount": 2,
          "latitude": 42.683333,
          "longitude": 23.316667
        }
      ]
    },
    {
      "code": "br",
      "name": "Brazil",
      "cities": [
        {
          "code": "for",
          "name": "Fortaleza",
          "relayCount": 2,
          "latitude": -3.732714,
          "longitude": -38.526997
        },
        {
          "code": "sao",
          "name": "Sao Paulo",
          "relayCount": 5,
          "latitude": -23.533773,
          "longitude": -46.62529
        }
      ]
    },
    {
      "code": "ca",
      "name": "Canada",
      "cities": [
        {
          "code": "mtr",
          "name": "Montreal",
          "relayCount": 14,
          "latitude": 45.5053,
          "longitude": -73.5525
        },
        {
          "code": "tor",
          "name": "Toronto",
          "relayCount": 9,
          "latitude": 43.666667,
          "longitude": -79.416667
        },
        {
          "code": "van",
          "name": "Vancouver",
          "relayCount": 4,
          "latitude": 49.25,
          "longitude": -123.133333
        },
        {
          "code": "yyc",
          "name": "Calgary",
          "relayCount": 2,
          "latitude": 51.037007,
          "longitude": -114.058315
        }
      ]
    },
    {
      "code": "ch",
      "name": "Switzerland",
      "cities": [
        {
          "code": "zrh",
          "name": "Zurich",
          "relayCount": 19,
          "latitude": 47.366667,
          "longitude": 8.55
        }
      ]
    },
    {
      "code": "cl",
      "name": "Chile",
      "cities": [
        {
          "code": "scl",
          "name": "Santiago",
          "relayCount": 2,
          "latitude": -33.448891,
          "longitude": -70.669266
        }
      ]
    },
    {
      "code": "co",
      "name": "Colombia",
      "cities": [
        {
          "code": "bog",
          "name": "Bogota",
          "relayCount": 2,
          "latitude": 4.624335,
          "longitude": -74.063644
        }
      ]
    },
    {
      "code": "cy",
      "name": "Cyprus",
      "cities": [
        {
          "code": "nic",
          "name": "Nicosia",
          "relayCount": 2,
          "latitude": 35.17025,
          "longitude": 33.3587
        }
      ]
    },
    {
      "code": "cz",
      "name": "Czech Republic",
      "cities": [
        {
          "code": "prg",
          "name": "Prague",
          "relayCount": 4,
          "latitude": 50.083333,
          "longitude": 14.466667
        }
      ]
    },
    {
      "code": "de",
      "name": "Germany",
      "cities": [
        {
          "code": "ber",
          "name": "Berlin",
          "relayCount": 8,
          "latitude": 52.520008,
          "longitude": 13.404954
        },
        {
          "code": "dus",
          "name": "Dusseldorf",
          "relayCount": 3,
          "latitude": 51.233334,
          "longitude": 6.783333
        },
        {
          "code": "fra",
          "name": "Frankfurt",
          "relayCount": 19,
          "latitude": 50.110924,
          "longitude": 8.682127
        }
      ]
    },
    {
      "code": "dk",
      "name": "Denmark",
      "cities": [
        {
          "code": "cph",
          "name": "Copenhagen",
          "relayCount": 7,
          "latitude": 55.666667,
          "longitude": 12.583333
        }
      ]
    },
    {
      "code": "ee",
      "name": "Estonia",
      "cities": [
        {
          "code": "tll",
          "name": "Tallinn",
          "relayCount": 3,
          "latitude": 59.436961,
          "longitude": 24.753575
        }
      ]
    },
    {
      "code": "es",
      "name": "Spain",
      "cities": [
        {
          "code": "bcn",
          "name": "Barcelona",
          "relayCount": 4,
          "latitude": 41.385063,
          "longitude": 2.173404
        },
        {
          "code": "mad",
          "name": "Madrid",
          "relayCount": 4,
          "latitude": 40.408566,
          "longitude": -3.69222
        },
        {
          "code": "vlc",
          "name": "Valencia",
          "relayCount": 2,
          "latitude": 39.466667,
          "longitude": -0.375
        }
      ]
    },
    {
      "code": "fi",
      "name": "Finland",
      "cities": [
        {
          "code": "hel",
          "name": "Helsinki",
          "relayCount": 10,
          "latitude": 60.192059,
          "longitude": 24.945831
        }
      ]
    },
    {
      "code": "fr",
      "name": "France",
      "cities": [
        {
          "code": "bod",
          "name": "Bordeaux",
          "relayCount": 2,
          "latitude": 44.837788,
          "longitude": -0.57918
        },
        {
          "code": "mrs",
          "name": "Marseille",
          "relayCount": 2,
          "latitude": 43.29648,
          "longitude": 5.38107
        },
        {
          "code": "par",
          "name": "Paris",
          "relayCount": 11,
          "latitude": 48.866667,
          "longitude": 2.333333
        }
      ]
    },
    {
      "code": "gb",
      "name": "UK",
      "cities": [
        {
          "code": "glw",
          "name": "Glasgow",
          "relayCount": 2,
          "latitude": 55.86515,
          "longitude": -4.25763
        },
        {
          "code": "lon",
          "name": "London",
          "relayCount": 15,
          "latitude": 51.514125,
          "longitude": -0.093689
        },
        {
          "code": "mnc",
          "name": "Manchester",
          "relayCount": 4,
          "latitude": 53.5,
          "longitude": -2.216667
        }
      ]
    },
    {
      "code": "gr",
      "name": "Greece",
      "cities": [
        {
          "code": "ath",
          "name": "Athens",
          "relayCount": 2,
          "latitude": 37.98381,
          "longitude": 23.727539
        }
      ]
    },
    {
      "code": "hk",
      "name": "Hong Kong",
      "cities": [
        {
          "code": "hkg",
          "name": "Hong Kong",
          "relayCount": 4,
          "latitude": 22.283333,
          "longitude": 114.15
        }
      ]
    },
    {
      "code": "hr",
      "name": "Croatia",
      "cities": [
        {
          "code": "zag",
          "name": "Zagreb",
          "relayCount": 2,
          "latitude": 45.821,
          "longitude": 15.973
        }
      ]
    },
    {
      "code": "hu",
      "name": "Hungary",
      "cities": [
        {
          "code": "bud",
          "name": "Budapest",
          "relayCount": 4,
          "latitude": 47.5,
          "longitude": 19.083333
        }
      ]
    },
    {
      "code": "id",
      "name": "Indonesia",
      "cities": [
        {
          "code": "jpu",
          "name": "Jakarta",
          "relayCount": 2,
          "latitude": -6.17511,
          "longitude": 106.865036
        }
      ]
    },
    {
      "code": "ie",
      "name": "Ireland",
      "cities": [
        {
          "code": "dub",
          "name": "Dublin",
          "relayCount": 3,
          "latitude": 53.35014,
          "longitude": -6.266155
        }
      ]
    },
    {
      "code": "il",
      "name": "Israel",
      "cities": [
        {
          "code": "tlv",
          "name": "Tel Aviv",
          "relayCount": 3,
          "latitude": 32.0853,
          "longitude": 34.781768
        }
      ]
    },
    {
      "code": "it",
      "name": "Italy",
      "cities": [
        {
          "code": "mil",
          "name": "Milan",
          "relayCount": 5,
          "latitude": 45.466667,
          "longitude": 9.2
        },
        {
          "code": "pmo",
          "name": "Palermo",
          "relayCount": 2,
          "latitude": 38.115688,
          "longitude": 13.361267
        }
      ]
    },
    {
      "code": "jp",
      "name": "Japan",
      "cities": [
        {
          "code": "osa",
          "name": "Osaka",
          "relayCount": 4,
          "latitude": 34.672314,
          "longitude": 135.484802
        },
        {
          "code": "tyo",
          "name": "Tokyo",
          "relayCount": 5,
          "latitude": 35.685,
          "longitude": 139.751389
        }
      ]
    },
    {
      "code": "mx",
      "name": "Mexico",
      "cities": [
        {
          "code": "qro",
          "name": "Queretaro",
          "relayCount": 4,
          "latitude": 20.592774,
          "longitude": -100.390225
        }
      ]
    },
    {
      "code": "my",
      "name": "Malaysia",
      "cities": [
        {
          "code": "kul",
          "name": "Kuala Lumpur",
          "relayCount": 2,
          "latitude": 3.139003,
          "longitude": 101.686852
        }
      ]
    },
    {
      "code": "ng",
      "name": "Nigeria",
      "cities": [
        {
          "code": "los",
          "name": "Lagos",
          "relayCount": 2,
          "latitude": 6.524379,
          "longitude": 3.379206
        }
      ]
    },
    {
      "code": "nl",
      "name": "Netherlands",
      "cities": [
        {
          "code": "ams",
          "name": "Amsterdam",
          "relayCount": 14,
          "latitude": 52.35,
          "longitude": 4.916667
        }
      ]
    },
    {
      "code": "no",
      "name": "Norway",
      "cities": [
        {
          "code": "osl",
          "name": "Oslo",
          "relayCount": 6,
          "latitude": 59.916667,
          "longitude": 10.75
        },
        {
          "code": "svg",
          "name": "Stavanger",
          "relayCount": 4,
          "latitude": 58.964432,
          "longitude": 5.72625
        }
      ]
    },
    {
      "code": "nz",
      "name": "New Zealand",
      "cities": [
        {
          "code": "akl",
          "name": "Auckland",
          "relayCount": 3,
          "latitude": -36.848461,
          "longitude": 174.763336
        }
      ]
    },
    {
      "code": "pe",
      "name": "Peru",
      "cities": [
        {
          "code": "lim",
          "name": "Lima",
          "relayCount": 2,
          "latitude": -12.046373,
          "longitude": -77.042755
        }
      ]
    },
    {
      "code": "ph",
      "name": "Philippines",
      "cities": [
        {
          "code": "mnl",
          "name": "Manila",
          "relayCount": 2,
          "latitude": 14.599512,
          "longitude": 120.984222
        }
      ]
    },
    {
      "code": "pl",
      "name": "Poland",
      "cities": [
        {
          "code": "waw",
          "name": "Warsaw",
          "relayCount": 5,
          "latitude": 52.25,
          "longitude": 21
        }
      ]
    },
    {
      "code": "pt",
      "name": "Portugal",
      "cities": [
        {
          "code": "lis",
          "name": "Lisbon",
          "relayCount": 4,
          "latitude": 38.736946,
          "longitude": -9.142685
        }
      ]
    },
    {
      "code": "ro",
      "name": "Romania",
      "cities": [
        {
          "code": "buh",
          "name": "Bucharest",
          "relayCount": 2,
          "latitude": 44.433333,
          "longitude": 26.1
        }
      ]
    },
    {
      "code": "rs",
      "name": "Serbia",
      "cities": [
        {
          "code": "beg",
          "name": "Belgrade",
          "relayCount": 2,
          "latitude": 44.787197,
          "longitude": 20.457273
        }
      ]
    },
    {
      "code": "se",
      "name": "Sweden",
      "cities": [
        {
          "code": "got",
          "name": "Gothenburg",
          "relayCount": 9,
          "latitude": 57.70887,
          "longitude": 11.97456
        },
        {
          "code": "mma",
          "name": "Malmö",
          "relayCount": 11,
          "latitude": 55.607075,
          "longitude": 13.002716
        },
        {
          "code": "sto",
          "name": "Stockholm",
          "relayCount": 19,
          "latitude": 59.3289,
          "longitude": 18.0649
        }
      ]
    },
    {
      "code": "sg",
      "name": "Singapore",
      "cities": [
        {
          "code": "sin",
          "name": "Singapore",
          "relayCount": 5,
          "latitude": 1.293056,
          "longitude": 103.855833
        }
      ]
    },
    {
      "code": "si",
      "name": "Slovenia",
      "cities": [
        {
          "code": "lju",
          "name": "Ljubljana",
          "relayCount": 2,
          "latitude": 46.0569,
          "longitude": 14.5057
        }
      ]
    },
    {
      "code": "sk",
      "name": "Slovakia",
      "cities": [
        {
          "code": "bts",
          "name": "Bratislava",
          "relayCount": 2,
          "latitude": 48.148598,
          "longitude": 17.107748
        }
      ]
    },
    {
      "code": "th",
      "name": "Thailand",
      "cities": [
        {
          "code": "bkk",
          "name": "Bangkok",
          "relayCount": 2,
          "latitude": 13.756331,
          "longitude": 100.501762
        }
      ]
    },
    {
      "code": "tr",
      "name": "Turkey",
      "cities": [
        {
          "code": "ist",
          "name": "Istanbul",
          "relayCount": 2,
          "latitude": 41.00824,
          "longitude": 28.978359
        }
      ]
    },
    {
      "code": "ua",
      "name": "Ukraine",
      "cities": [
        {
          "code": "iev",
          "name": "Kyiv",
          "relayCount": 2,
          "latitude": 50.4501,
          "longitude": 30.5234
        }
      ]
    },
    {
      "code": "us",
      "name": "USA",
      "cities": [
        {
          "code": "atl",
          "name": "Atlanta, GA",
          "relayCount": 16,
          "latitude": 33.753746,
          "longitude": -84.38633
        },
        {
          "code": "bos",
          "name": "Boston, MA",
          "relayCount": 3,
          "latitude": 42.361145,
          "longitude": -71.057083
        },
        {
          "code": "chi",
          "name": "Chicago, IL",
          "relayCount": 16,
          "latitude": 41.881832,
          "longitude": -87.623177
        },
        {
          "code": "dal",
          "name": "Dallas, TX",
          "relayCount": 18,
          "latitude": 32.89748,
          "longitude": -97.040443
        },
        {
          "code": "den",
          "name": "Denver, CO",
          "relayCount": 11,
          "latitude": 39.739236,
          "longitude": -104.990251
        },
        {
          "code": "hou",
          "name": "Houston, TX",
          "relayCount": 4,
          "latitude": 29.749907,
          "longitude": -95.358421
        },
        {
          "code": "lax",
          "name": "Los Angeles, CA",
          "relayCount": 31,
          "latitude": 34.052235,
          "longitude": -118.243683
        },
        {
          "code": "mia",
          "name": "Miami, FL",
          "relayCount": 6,
          "latitude": 25.761681,
          "longitude": -80.191788
        },
        {
          "code": "mkc",
          "name": "Kansas City, MO",
          "relayCount": 13,
          "latitude": 39.099789,
          "longitude": -94.57856
        },
        {
          "code": "nyc",
          "name": "New York, NY",
          "relayCount": 24,
          "latitude": 40.73061,
          "longitude": -73.935242
        },
        {
          "code": "phx",
          "name": "Phoenix, AZ",
          "relayCount": 8,
          "latitude": 33.448376,
          "longitude": -112.074036
        },
        {
          "code": "qas",
          "name": "Ashburn, VA",
          "relayCount": 14,
          "latitude": 39.043757,
          "longitude": -77.487442
        },
        {
          "code": "rag",
          "name": "Raleigh, NC",
          "relayCount": 8,
          "latitude": 35.787743,
          "longitude": -78.644257
        },
        {
          "code": "sea",
          "name": "Seattle, WA",
          "relayCount": 11,
          "latitude": 47.608013,
          "longitude": -122.335167
        },
        {
          "code": "sjc",
          "name": "San Jose, CA",
          "relayCount": 12,
          "latitude": 37.338208,
          "longitude": -121.886329
        },
        {
          "code": "slc",
          "name": "Salt Lake City, UT",
          "relayCount": 11,
          "latitude": 40.758701,
          "longitude": -111.876183
        },
        {
          "code": "txc",
          "name": "McAllen, TX",
          "relayCount": 2,
          "latitude": 26.203407,
          "longitude": -98.230011
        },
        {
          "code": "uyk",
          "name": "Secaucus, NJ",
          "relayCount": 2,
          "latitude": 40.789543,
          "longitude": -74.0565
        },
        {
          "code": "was",
          "name": "Washington DC",
          "relayCount": 2,
          "latitude": 38.889484,
          "longitude": -77.035278
        }
      ]
    },
    {
      "code": "za",
      "name": "South Africa",
      "cities": [
        {
          "code": "jnb",
          "name": "Johannesburg",
          "relayCount": 2,
          "latitude": -26.195246,
          "longitude": 28.034088
        }
      ]
    }
  ],
  "relays": [
    {
      "hostname": "al-tia-wg-003",
      "fqdn": "al-tia-wg-003.relays.mullvad.net",
      "source": "app-wireguard-v1",
      "active": true,
      "owned": false,
      "publicKey": "rWiQxq5lAWD8v/bws9ITSAvThyZW8cR2x+Ins9ZvvRo=",
      "endpointIpv4": "103.124.165.130",
      "endpointIpv6": "2a04:27c0:0:c::f001",
      "multihopPort": 3574,
      "location": {
        "countryCode": "al",
        "countryName": "Albania",
        "cityCode": "tia",
        "cityName": "Tirana",
        "latitude": 41.327953,
        "longitude": 19.819025
      }
    },
    {
      "hostname": "al-tia-wg-004",
      "fqdn": "al-tia-wg-004.relays.mullvad.net",
      "source": "app-wireguard-v1",
      "active": true,
      "owned": false,
      "publicKey": "x62J1c4gfHu/bF3DSjwIjC0qOE3azRG03i/YW6bOEGY=",
      "endpointIpv4": "103.124.165.191",
      "endpointIpv6": "2a04:27c0:0:d::f001",
      "multihopPort": 3575,
      "location": {
        "countryCode": "al",
        "countryName": "Albania",
        "cityCode": "tia",
        "cityName": "Tirana",
        "latitude": 41.327953,
        "longitude": 19.819025
      }
    },
    {
      "hostname": "ar-bue-wg-001",
      "fqdn": "ar-bue-wg-001.relays.mullvad.net",
      "source": "app-wireguard-v1",
      "active": true,
      "owned": false,
      "publicKey": "1WN0Mqa0Azw7cYYEamHPgHXE8SuylNIG2QobZKOaclA=",
      "endpointIpv4": "149.22.83.2",
      "endpointIpv6": "2a02:6ea0:f002:1::f001",
      "multihopPort": 3015,
      "location": {
        "countryCode": "ar",
        "countryName": "Argentina",
        "cityCode": "bue",
        "cityName": "Buenos Aires",
        "latitude": -34.474561,
        "longitude": -58.664522
      }
    },
    {
      "hostname": "ar-bue-wg-002",
      "fqdn": "ar-bue-wg-002.relays.mullvad.net",
      "source": "app-wireguard-v1",
      "active": true,
      "owned": false,
      "publicKey": "gGrdozNHVCnmcX5x8OPOXfnyZ+TZWqD9GlHl1kRekyA=",
      "endpointIpv4": "149.22.83.31",
      "endpointIpv6": "2a02:6ea0:f002:2::f001",
      "multihopPort": 3047,
      "location": {
        "countryCode": "ar",
        "countryName": "Argentina",
        "cityCode": "bue",
        "cityName": "Buenos Aires",
        "latitude": -34.474561,
        "longitude": -58.664522
      }
    },
    {
      "hostname": "at-vie-wg-001",
      "fqdn": "at-vie-wg-001.relays.mullvad.net",
      "source": "app-wireguard-v1",
      "active": true,
      "owned": false,
      "publicKey": "TNrdH73p6h2EfeXxUiLOCOWHcjmjoslLxZptZpIPQXU=",
      "endpointIpv4": "146.70.116.98",
      "endpointIpv6": "2001:ac8:29:84::a01f",
      "multihopPort": 3543,
      "location": {
        "countryCode": "at",
        "countryName": "Austria",
        "cityCode": "vie",
        "cityName": "Vienna",
        "latitude": 48.210033,
        "longitude": 16.363449
      }
    },
    {
      "hostname": "at-vie-wg-002",
      "fqdn": "at-vie-wg-002.relays.mullvad.net",
      "source": "app-wireguard-v1",
      "active": true,
      "owned": false,
      "publicKey": "ehXBc726YX1N6Dm7fDAVMG5cIaYAFqCA4Lbpl4VWcWE=",
      "endpointIpv4": "146.70.116.130",
      "endpointIpv6": "2001:ac8:29:85::a02f",
      "multihopPort": 3544,
      "location": {
        "countryCode": "at",
        "countryName": "Austria",
        "cityCode": "vie",
        "cityName": "Vienna",
        "latitude": 48.210033,
        "longitude": 16.363449
      }
    },
    {
      "hostname": "at-vie-wg-003",
      "fqdn": "at-vie-wg-003.relays.mullvad.net",
      "source": "app-wireguard-v1",
      "active": true,
      "owned": false,
      "publicKey": "ddllelPu2ndjSX4lHhd/kdCStaSJOQixs9z551qN6B8=",
      "endpointIpv4": "146.70.116.162",
      "endpointIpv6": "2001:ac8:29:86::a03f",
      "multihopPort": 3545,
      "location": {
        "countryCode": "at",
        "countryName": "Austria",
        "cityCode": "vie",
        "cityName": "Vienna",
        "latitude": 48.210033,
        "longitude": 16.363449
      }
    },
    {
      "hostname": "at-vie-wg-101",
      "fqdn": "at-vie-wg-101.relays.mullvad.net",
      "source": "app-wireguard-v1",
      "active": true,
      "owned": false,
      "publicKey": "dj3qNfJfA4dWXsWokPcDh4oo6xaPtOTPfbr5UzHKZ0M=",
      "endpointIpv4": "185.24.11.130",
      "endpointIpv6": "2a02:6ea0:cb1b:1::f001",
      "multihopPort": 3327,
      "location": {
        "countryCode": "at",
        "countryName": "Austria",
        "cityCode": "vie",
        "cityName": "Vienna",
        "latitude": 48.210033,
        "longitude": 16.363449
      }
    },
    {
      "hostname": "at-vie-wg-102",
      "fqdn": "at-vie-wg-102.relays.mullvad.net",
      "source": "app-wireguard-v1",
      "active": true,
      "owned": false,
      "publicKey": "DANFtH+sFB19BnW1CYEwZ2pOIt7P8nLjSadjpS2rLWE=",
      "endpointIpv4": "185.24.11.159",
      "endpointIpv6": "2a02:6ea0:cb1b:2::f001",
      "multihopPort": 3328,
      "location": {
        "countryCode": "at",
        "countryName": "Austria",
        "cityCode": "vie",
        "cityName": "Vienna",
        "latitude": 48.210033,
        "longitude": 16.363449
      }
    },
    {
      "hostname": "au-adl-wg-301",
      "fqdn": "au-adl-wg-301.relays.mullvad.net",
      "source": "app-wireguard-v1",
      "active": true,
      "owned": false,
      "publicKey": "rm2hpBiN91c7reV+cYKlw7QNkYtME/+js7IMyYBB2Aw=",
      "endpointIpv4": "103.214.20.50",
      "endpointIpv6": "2404:f780:0:deb::c1f",
      "multihopPort": 3099,
      "location": {
        "countryCode": "au",
        "countryName": "Australia",
        "cityCode": "adl",
        "cityName": "Adelaide",
        "latitude": -34.92123,
        "longitude": 138.599503
      }
    },
    {
      "hostname": "au-adl-wg-302",
      "fqdn": "au-adl-wg-302.relays.mullvad.net",
      "source": "app-wireguard-v1",
      "active": true,
      "owned": false,
      "publicKey": "e4jouH8n4e8oyi/Z7d6lJLd6975hlPZmnynJeoU+nWM=",
      "endpointIpv4": "103.214.20.130",
      "endpointIpv6": "2404:f780:0:dec::c2f",
      "multihopPort": 3156,
      "location": {
        "countryCode": "au",
        "countryName": "Australia",
        "cityCode": "adl",
        "cityName": "Adelaide",
        "latitude": -34.92123,
        "longitude": 138.599503
      }
    },
    {
      "hostname": "au-adl-wg-303",
      "fqdn": "au-adl-wg-303.relays.mullvad.net",
      "source": "app-wireguard-v1",
      "active": true,
      "owned": false,
      "publicKey": "X9vdIZG69ZDU4Wf05T8F+C+NuWeYOgojmOVeASdiIWo=",
      "endpointIpv4": "103.214.20.162",
      "endpointIpv6": "2404:f780:0:def::f201",
      "multihopPort": 3003,
      "location": {
        "countryCode": "au",
        "countryName": "Australia",
        "cityCode": "adl",
        "cityName": "Adelaide",
        "latitude": -34.92123,
        "longitude": 138.599503
      }
    },
    {
      "hostname": "au-bne-wg-301",
      "fqdn": "au-bne-wg-301.relays.mullvad.net",
      "source": "app-wireguard-v1",
      "active": true,
      "owned": false,
      "publicKey": "1H/gj8SVNebAIEGlvMeUVC5Rnf274dfVKbyE+v5G8HA=",
      "endpointIpv4": "103.216.220.18",
      "endpointIpv6": "2404:f780:4:deb::f001",
      "multihopPort": 3220,
      "location": {
        "countryCode": "au",
        "countryName": "Australia",
        "cityCode": "bne",
        "cityName": "Brisbane",
        "latitude": -27.471,
        "longitude": 153.0234
      }
    },
    {
      "hostname": "au-bne-wg-302",
      "fqdn": "au-bne-wg-302.relays.mullvad.net",
      "source": "app-wireguard-v1",
      "active": true,
      "owned": false,
      "publicKey": "z+JG0QA4uNd/wRTpjCqn9rDpQsHKhf493omqQ5rqYAc=",
      "endpointIpv4": "103.216.220.34",
      "endpointIpv6": "2404:f780:4:dec::a02f",
      "multihopPort": 3221,
      "location": {
        "countryCode": "au",
        "countryName": "Australia",
        "cityCode": "bne",
        "cityName": "Brisbane",
        "latitude": -27.471,
        "longitude": 153.0234
      }
    },
    {
      "hostname": "au-bne-wg-303",
      "fqdn": "au-bne-wg-303.relays.mullvad.net",
      "source": "app-wireguard-v1",
      "active": true,
      "owned": false,
      "publicKey": "AdUQ6vk1e1SMzlLpgwmg86A0SSj8YGrJE2UWlflGtCg=",
      "endpointIpv4": "103.216.220.66",
      "endpointIpv6": "2404:f780:4:def::f201",
      "multihopPort": 3069,
      "location": {
        "countryCode": "au",
        "countryName": "Australia",
        "cityCode": "bne",
        "cityName": "Brisbane",
        "latitude": -27.471,
        "longitude": 153.0234
      }
    },
    {
      "hostname": "au-mel-wg-401",
      "fqdn": "au-mel-wg-401.relays.mullvad.net",
      "source": "app-wireguard-v1",
      "active": true,
      "owned": false,
      "publicKey": "ju0S2nDmiOrSm1H68SRTB4mtt2U8SKROprE83VCoF1Y=",
      "endpointIpv4": "163.47.16.146",
      "endpointIpv6": "2406:d501:f:dfa::f001",
      "multihopPort": 3307,
      "location": {
        "countryCode": "au",
        "countryName": "Australia",
        "cityCode": "mel",
        "cityName": "Melbourne",
        "latitude": -37.815018,
        "longitude": 144.946014
      }
    },
    {
      "hostname": "au-mel-wg-402",
      "fqdn": "au-mel-wg-402.relays.mullvad.net",
      "source": "app-wireguard-v1",
      "active": true,
      "owned": false,
      "publicKey": "j9xeIW+vE1DQAglbr00Vw1ePp6ueWklZ+Qx+KuyoBwQ=",
      "endpointIpv4": "163.47.16.150",
      "endpointIpv6": "2406:d501:f:dfb::f001",
      "multihopPort": 3313,
      "location": {
        "countryCode": "au",
        "countryName": "Australia",
        "cityCode": "mel",
        "cityName": "Melbourne",
        "latitude": -37.815018,
        "longitude": 144.946014
      }
    },
    {
      "hostname": "au-mel-wg-403",
      "fqdn": "au-mel-wg-403.relays.mullvad.net",
      "source": "app-wireguard-v1",
      "active": true,
      "owned": false,
      "publicKey": "OQzxEZxEnLI85WF81VFO4tg9+fEBZ1dL+vckw2VYPxk=",
      "endpointIpv4": "163.47.16.154",
      "endpointIpv6": "2406:d501:f:dfc::f001",
      "multihopPort": 3615,
      "location": {
        "countryCode": "au",
        "countryName": "Australia",
        "cityCode": "mel",
        "cityName": "Melbourne",
        "latitude": -37.815018,
        "longitude": 144.946014
      }
    },
    {
      "hostname": "au-per-wg-301",
      "fqdn": "au-per-wg-301.relays.mullvad.net",
      "source": "app-wireguard-v1",
      "active": true,
      "owned": false,
      "publicKey": "hQXsNk/9R2We0pzP1S9J3oNErEu2CyENlwTdmDUYFhg=",
      "endpointIpv4": "103.108.231.50",
      "endpointIpv6": "2404:f780:8:deb::a01f",
      "multihopPort": 3309,
      "location": {
        "countryCode": "au",
        "countryName": "Australia",
        "cityCode": "per",
        "cityName": "Perth",
        "latitude": -31.953512,
        "longitude": 115.857048
      }
    },
    {
      "hostname": "au-per-wg-302",
      "fqdn": "au-per-wg-302.relays.mullvad.net",
      "source": "app-wireguard-v1",
      "active": true,
      "owned": false,
      "publicKey": "t3Ly8bBdF2gMHzT3d529bVLDw8Jd2/FFG9GXoBEx01g=",
      "endpointIpv4": "103.108.231.66",
      "endpointIpv6": "2404:f780:8:dec::f001",
      "multihopPort": 3311,
      "location": {
        "countryCode": "au",
        "countryName": "Australia",
        "cityCode": "per",
        "cityName": "Perth",
        "latitude": -31.953512,
        "longitude": 115.857048
      }
    },
    {
      "hostname": "au-syd-wg-001",
      "fqdn": "au-syd-wg-001.relays.mullvad.net",
      "source": "app-wireguard-v1",
      "active": true,
      "owned": false,
      "publicKey": "4JpfHBvthTFOhCK0f5HAbzLXAVcB97uAkuLx7E8kqW0=",
      "endpointIpv4": "146.70.200.2",
      "endpointIpv6": "2001:ac8:84:5::f001",
      "multihopPort": 3036,
      "location": {
        "countryCode": "au",
        "countryName": "Australia",
        "cityCode": "syd",
        "cityName": "Sydney",
        "latitude": -33.861481,
        "longitude": 151.205475
      }
    },
    {
      "hostname": "au-syd-wg-002",
      "fqdn": "au-syd-wg-002.relays.mullvad.net",
      "source": "app-wireguard-v1",
      "active": true,
      "owned": false,
      "publicKey": "lUeDAOy+iAhZDuz5+6zh0Co8wZcs3ahdu2jfqQoDW3E=",
      "endpointIpv4": "146.70.141.194",
      "endpointIpv6": "2001:ac8:84:6::2f",
      "multihopPort": 3037,
      "location": {
        "countryCode": "au",
        "countryName": "Australia",
        "cityCode": "syd",
        "cityName": "Sydney",
        "latitude": -33.861481,
        "longitude": 151.205475
      }
    },
    {
      "hostname": "au-syd-wg-003",
      "fqdn": "au-syd-wg-003.relays.mullvad.net",
      "source": "app-wireguard-v1",
      "active": true,
      "owned": false,
      "publicKey": "LXuRwa9JRTt2/UtldklKGlj/IVLORITqgET4II4DRkU=",
      "endpointIpv4": "146.70.200.194",
      "endpointIpv6": "2001:ac8:84:4::3f",
      "multihopPort": 3042,
      "location": {
        "countryCode": "au",
        "countryName": "Australia",
        "cityCode": "syd",
        "cityName": "Sydney",
        "latitude": -33.861481,
        "longitude": 151.205475
      }
    },
    {
      "hostname": "au-syd-wg-101",
      "fqdn": "au-syd-wg-101.relays.mullvad.net",
      "source": "app-wireguard-v1",
      "active": true,
      "owned": false,
      "publicKey": "NKP4jSvSDZg5HJ3JxpGYMxIYt7QzoxSFrU2F0m1ZxwA=",
      "endpointIpv4": "103.136.147.3",
      "endpointIpv6": "2a11:3:500::f001",
      "multihopPort": 3214,
      "location": {
        "countryCode": "au",
        "countryName": "Australia",
        "cityCode": "syd",
        "cityName": "Sydney",
        "latitude": -33.861481,
        "longitude": 151.205475
      }
    },
    {
      "hostname": "au-syd-wg-102",
      "fqdn": "au-syd-wg-102.relays.mullvad.net",
      "source": "app-wireguard-v1",
      "active": true,
      "owned": false,
      "publicKey": "w825smx7YI9/SrwSYGdsuwD1Qt5UsS/CyaGTjwSYljU=",
      "endpointIpv4": "103.136.147.65",
      "endpointIpv6": "2a11:3:500::f101",
      "multihopPort": 3215,
      "location": {
        "countryCode": "au",
        "countryName": "Australia",
        "cityCode": "syd",
        "cityName": "Sydney",
        "latitude": -33.861481,
        "longitude": 151.205475
      }
    },
    {
      "hostname": "au-syd-wg-103",
      "fqdn": "au-syd-wg-103.relays.mullvad.net",
      "source": "app-wireguard-v1",
      "active": true,
      "owned": false,
      "publicKey": "poOHsF6v91yURxDrNe/P/adyNUqsRGzhFIioyBYUPww=",
      "endpointIpv4": "103.136.147.129",
      "endpointIpv6": "2a11:3:500::f201",
      "multihopPort": 3141,
      "location": {
        "countryCode": "au",
        "countryName": "Australia",
        "cityCode": "syd",
        "cityName": "Sydney",
        "latitude": -33.861481,
        "longitude": 151.205475
      }
    },
    {
      "hostname": "au-syd-wg-104",
      "fqdn": "au-syd-wg-104.relays.mullvad.net",
      "source": "app-wireguard-v1",
      "active": true,
      "owned": false,
      "publicKey": "61Ovy3ObuHqllZK/P/5cOWZnY26SY2csmjzVK1q+fFs=",
      "endpointIpv4": "103.136.147.197",
      "endpointIpv6": "2a11:3:500::f301",
      "multihopPort": 3211,
      "location": {
        "countryCode": "au",
        "countryName": "Australia",
        "cityCode": "syd",
        "cityName": "Sydney",
        "latitude": -33.861481,
        "longitude": 151.205475
      }
    },
    {
      "hostname": "au-syd-wg-301",
      "fqdn": "au-syd-wg-301.relays.mullvad.net",
      "source": "app-wireguard-v1",
      "active": true,
      "owned": false,
      "publicKey": "bQIQLk9zVOZLEGJsQOMu0K3rCMc85gExkS/0b1tSVBk=",
      "endpointIpv4": "103.120.6.2",
      "endpointIpv6": "2a06:3040:18:210::f001",
      "multihopPort": 3578,
      "location": {
        "countryCode": "au",
        "countryName": "Australia",
        "cityCode": "syd",
        "cityName": "Sydney",
        "latitude": -33.861481,
        "longitude": 151.205475
      }
    },
    {
      "hostname": "au-syd-wg-302",
      "fqdn": "au-syd-wg-302.relays.mullvad.net",
      "source": "app-wireguard-v1",
      "active": true,
      "owned": false,
      "publicKey": "6tTqSMUVPhaMsFFdphijwdura5RnNOzlz33Ekp1oCmc=",
      "endpointIpv4": "103.120.6.127",
      "endpointIpv6": "2a06:3040:18:210::f101",
      "multihopPort": 3579,
      "location": {
        "countryCode": "au",
        "countryName": "Australia",
        "cityCode": "syd",
        "cityName": "Sydney",
        "latitude": -33.861481,
        "longitude": 151.205475
      }
    },
    {
      "hostname": "au-syd-wg-303",
      "fqdn": "au-syd-wg-303.relays.mullvad.net",
      "source": "app-wireguard-v1",
      "active": true,
      "owned": false,
      "publicKey": "RK/eoKsyX4fu7iJ9F5mTf07en/WgYOMAtPGivKTntlw=",
      "endpointIpv4": "103.141.60.2",
      "endpointIpv6": "2a06:3040:18:210::f201",
      "multihopPort": 3580,
      "location": {
        "countryCode": "au",
        "countryName": "Australia",
        "cityCode": "syd",
        "cityName": "Sydney",
        "latitude": -33.861481,
        "longitude": 151.205475
      }
    },
    {
      "hostname": "au-syd-wg-304",
      "fqdn": "au-syd-wg-304.relays.mullvad.net",
      "source": "app-wireguard-v1",
      "active": true,
      "owned": false,
      "publicKey": "gXZZhcHfOD7FtnwTw8APUnccwMTVQYDNs4bbjHGS3CI=",
      "endpointIpv4": "103.141.60.127",
      "endpointIpv6": "2a06:3040:18:210::f301",
      "multihopPort": 3581,
      "location": {
        "countryCode": "au",
        "countryName": "Australia",
        "cityCode": "syd",
        "cityName": "Sydney",
        "latitude": -33.861481,
        "longitude": 151.205475
      }
    },
    {
      "hostname": "be-bru-wg-101",
      "fqdn": "be-bru-wg-101.relays.mullvad.net",
      "source": "app-wireguard-v1",
      "active": true,
      "owned": false,
      "publicKey": "GE2WP6hmwVggSvGVWLgq2L10T3WM2VspnUptK5F4B0U=",
      "endpointIpv4": "91.90.123.2",
      "endpointIpv6": "2001:ac8:27:88::a01f",
      "multihopPort": 3550,
      "location": {
        "countryCode": "be",
        "countryName": "Belgium",
        "cityCode": "bru",
        "cityName": "Brussels",
        "latitude": 50.833333,
        "longitude": 4.333333
      }
    },
    {
      "hostname": "be-bru-wg-102",
      "fqdn": "be-bru-wg-102.relays.mullvad.net",
      "source": "app-wireguard-v1",
      "active": true,
      "owned": false,
      "publicKey": "IY+FKw487MEWqMGNyyrT4PnTrJxce8oiGNHT0zifam8=",
      "endpointIpv4": "194.110.115.34",
      "endpointIpv6": "2001:ac8:27:89::a02f",
      "multihopPort": 3551,
      "location": {
        "countryCode": "be",
        "countryName": "Belgium",
        "cityCode": "bru",
        "cityName": "Brussels",
        "latitude": 50.833333,
        "longitude": 4.333333
      }
    },
    {
      "hostname": "be-bru-wg-103",
      "fqdn": "be-bru-wg-103.relays.mullvad.net",
      "source": "app-wireguard-v1",
      "active": true,
      "owned": false,
      "publicKey": "b5A1ela+BVI+AbNXz7SWekZHvdWWpt3rqUKTJj0SqCU=",
      "endpointIpv4": "194.110.115.2",
      "endpointIpv6": "2001:ac8:27:92::a03f",
      "multihopPort": 3552,
      "location": {
        "countryCode": "be",
        "countryName": "Belgium",
        "cityCode": "bru",
        "cityName": "Brussels",
        "latitude": 50.833333,
        "longitude": 4.333333
      }
    },
    {
      "hostname": "bg-sof-wg-001",
      "fqdn": "bg-sof-wg-001.relays.mullvad.net",
      "source": "app-wireguard-v1",
      "active": true,
      "owned": false,
      "publicKey": "J8KysHmHZWqtrVKKOppneDXSks/PDsB1XTlRHpwiABA=",
      "endpointIpv4": "146.70.188.130",
      "endpointIpv6": "2001:ac8:30:56::f001",
      "multihopPort": 3225,
      "location": {
        "countryCode": "bg",
        "countryName": "Bulgaria",
        "cityCode": "sof",
        "cityName": "Sofia",
        "latitude": 42.683333,
        "longitude": 23.316667
      }
    },
    {
      "hostname": "bg-sof-wg-002",
      "fqdn": "bg-sof-wg-002.relays.mullvad.net",
      "source": "app-wireguard-v1",
      "active": true,
      "owned": false,
      "publicKey": "dg+Fw7GnKvDPBxFpnj1KPoNIu1GakuVoDJjKRni+pRU=",
      "endpointIpv4": "146.70.188.194",
      "endpointIpv6": "2001:ac8:30:57::f001",
      "multihopPort": 3226,
      "location": {
        "countryCode": "bg",
        "countryName": "Bulgaria",
        "cityCode": "sof",
        "cityName": "Sofia",
        "latitude": 42.683333,
        "longitude": 23.316667
      }
    },
    {
      "hostname": "br-for-wg-001",
      "fqdn": "br-for-wg-001.relays.mullvad.net",
      "source": "app-wireguard-v1",
      "active": true,
      "owned": false,
      "publicKey": "CiPqGvrQidRVmKc6T8TORsAAZtQbsGzNEAKyd1iVlWY=",
      "endpointIpv4": "98.98.12.178",
      "endpointIpv6": "2604:980:e007:100::f001",
      "multihopPort": 3010,
      "location": {
        "countryCode": "br",
        "countryName": "Brazil",
        "cityCode": "for",
        "cityName": "Fortaleza",
        "latitude": -3.732714,
        "longitude": -38.526997
      }
    },
    {
      "hostname": "br-for-wg-002",
      "fqdn": "br-for-wg-002.relays.mullvad.net",
      "source": "app-wireguard-v1",
      "active": true,
      "owned": false,
      "publicKey": "qXISz0Kl4oC0sypcjD6hIxplv8zzZGIJPQZc4/EGz2k=",
      "endpointIpv4": "98.98.12.182",
      "endpointIpv6": "2604:980:e007:100::f101",
      "multihopPort": 3012,
      "location": {
        "countryCode": "br",
        "countryName": "Brazil",
        "cityCode": "for",
        "cityName": "Fortaleza",
        "latitude": -3.732714,
        "longitude": -38.526997
      }
    },
    {
      "hostname": "br-sao-wg-201",
      "fqdn": "br-sao-wg-201.relays.mullvad.net",
      "source": "app-wireguard-v1",
      "active": true,
      "owned": false,
      "publicKey": "8c9M6w1BQbgMVr/Zgrj4GwSdU6q3qfQfWs17kMLC9y4=",
      "endpointIpv4": "169.150.198.66",
      "endpointIpv6": "2a02:6ea0:d00e:1::a01f",
      "multihopPort": 3539,
      "location": {
        "countryCode": "br",
        "countryName": "Brazil",
        "cityCode": "sao",
        "cityName": "Sao Paulo",
        "latitude": -23.533773,
        "longitude": -46.62529
      }
    },
    {
      "hostname": "br-sao-wg-202",
      "fqdn": "br-sao-wg-202.relays.mullvad.net",
      "source": "app-wireguard-v1",
      "active": true,
      "owned": false,
      "publicKey": "jWURoz8SLBUlRTQnAFTA/LDZUTpvlO0ghiVWH7MgaHQ=",
      "endpointIpv4": "169.150.198.79",
      "endpointIpv6": "2a02:6ea0:d00e:2::a02f",
      "multihopPort": 3540,
      "location": {
        "countryCode": "br",
        "countryName": "Brazil",
        "cityCode": "sao",
        "cityName": "Sao Paulo",
        "latitude": -23.533773,
        "longitude": -46.62529
      }
    },
    {
      "hostname": "br-sao-wg-302",
      "fqdn": "br-sao-wg-302.relays.mullvad.net",
      "source": "app-wireguard-v1",
      "active": true,
      "owned": false,
      "publicKey": "Xv1QvURPbgywITL6MNVhbYtfZXTm0lR98SPaf3AXeCc=",
      "endpointIpv4": "103.139.178.63",
      "endpointIpv6": "2a06:3040:10:610::f101",
      "multihopPort": 3510,
      "location": {
        "countryCode": "br",
        "countryName": "Brazil",
        "cityCode": "sao",
        "cityName": "Sao Paulo",
        "latitude": -23.533773,
        "longitude": -46.62529
      }
    },
    {
      "hostname": "br-sao-wg-303",
      "fqdn": "br-sao-wg-303.relays.mullvad.net",
      "source": "app-wireguard-v1",
      "active": true,
      "owned": false,
      "publicKey": "oYrzNmnieX0iZS2nLxdM3mNcDjQZEWn5yaFCtX76qDk=",
      "endpointIpv4": "103.139.178.123",
      "endpointIpv6": "2a06:3040:10:610::f201",
      "multihopPort": 3529,
      "location": {
        "countryCode": "br",
        "countryName": "Brazil",
        "cityCode": "sao",
        "cityName": "Sao Paulo",
        "latitude": -23.533773,
        "longitude": -46.62529
      }
    },
    {
      "hostname": "br-sao-wg-304",
      "fqdn": "br-sao-wg-304.relays.mullvad.net",
      "source": "app-wireguard-v1",
      "active": true,
      "owned": false,
      "publicKey": "hmO6+lN2CrWMFdpiPtSZ3oPRmcsJlpIi00P+c5p6rQQ=",
      "endpointIpv4": "103.139.178.183",
      "endpointIpv6": "2a06:3040:10:610::f301",
      "multihopPort": 3560,
      "location": {
        "countryCode": "br",
        "countryName": "Brazil",
        "cityCode": "sao",
        "cityName": "Sao Paulo",
        "latitude": -23.533773,
        "longitude": -46.62529
      }
    },
    {
      "hostname": "ca-mtr-wg-001",
      "fqdn": "ca-mtr-wg-001.relays.mullvad.net",
      "source": "app-wireguard-v1",
      "active": true,
      "owned": false,
      "publicKey": "TUCaQc26/R6AGpkDUr8A8ytUs/e5+UVlIVujbuBwlzI=",
      "endpointIpv4": "146.70.198.66",
      "endpointIpv6": "2a0d:5600:9:c::f001",
      "multihopPort": 3231,
      "location": {
        "countryCode": "ca",
        "countryName": "Canada",
        "cityCode": "mtr",
        "cityName": "Montreal",
        "latitude": 45.5053,
        "longitude": -73.5525
      }
    },
    {
      "hostname": "ca-mtr-wg-002",
      "fqdn": "ca-mtr-wg-002.relays.mullvad.net",
      "source": "app-wireguard-v1",
      "active": true,
      "owned": false,
      "publicKey": "7X6zOgtJfJAK8w8C3z+hekcS9Yf3qK3Bp4yx56lqxBQ=",
      "endpointIpv4": "146.70.198.130",
      "endpointIpv6": "2a0d:5600:9:d::f001",
      "multihopPort": 3232,
      "location": {
        "countryCode": "ca",
        "countryName": "Canada",
        "cityCode": "mtr",
        "cityName": "Montreal",
        "latitude": 45.5053,
        "longitude": -73.5525
      }
    },
    {
      "hostname": "ca-mtr-wg-003",
      "fqdn": "ca-mtr-wg-003.relays.mullvad.net",
      "source": "app-wireguard-v1",
      "active": true,
      "owned": false,
      "publicKey": "57Zu2qPzRScZWsoC2NhXgz0FiC0HiKkbEa559sbxB3k=",
      "endpointIpv4": "146.70.198.194",
      "endpointIpv6": "2a0d:5600:9:e::a02f",
      "multihopPort": 3233,
      "location": {
        "countryCode": "ca",
        "countryName": "Canada",
        "cityCode": "mtr",
        "cityName": "Montreal",
        "latitude": 45.5053,
        "longitude": -73.5525
      }
    },
    {
      "hostname": "ca-mtr-wg-004",
      "fqdn": "ca-mtr-wg-004.relays.mullvad.net",
      "source": "app-wireguard-v1",
      "active": true,
      "owned": false,
      "publicKey": "Cc5swfQ9f2tAgLduuIqC3bLbwDVoOFkkETghsE6/twA=",
      "endpointIpv4": "188.241.176.194",
      "endpointIpv6": "2a0d:5600:9:16::f001",
      "multihopPort": 3234,
      "location": {
        "countryCode": "ca",
        "countryName": "Canada",
        "cityCode": "mtr",
        "cityName": "Montreal",
        "latitude": 45.5053,
        "longitude": -73.5525
      }
    },
    {
      "hostname": "ca-mtr-wg-201",
      "fqdn": "ca-mtr-wg-201.relays.mullvad.net",
      "source": "app-wireguard-v1",
      "active": true,
      "owned": false,
      "publicKey": "m1DF8sQgOBo+vfdl1//sCvu2TnsHKdRzfsiszbBZQzs=",
      "endpointIpv4": "62.93.167.130",
      "endpointIpv6": "2a02:6ea0:a03:2::f001",
      "multihopPort": 3168,
      "location": {
        "countryCode": "ca",
        "countryName": "Canada",
        "cityCode": "mtr",
        "cityName": "Montreal",
        "latitude": 45.5053,
        "longitude": -73.5525
      }
    },
    {
      "hostname": "ca-mtr-wg-202",
      "fqdn": "ca-mtr-wg-202.relays.mullvad.net",
      "source": "app-wireguard-v1",
      "active": true,
      "owned": false,
      "publicKey": "NqU0AZRAYH1p8BDUbirqITPJX47WYJsyxO73RHcEjEQ=",
      "endpointIpv4": "62.93.167.160",
      "endpointIpv6": "2a02:6ea0:a03::f001",
      "multihopPort": 3171,
      "location": {
        "countryCode": "ca",
        "countryName": "Canada",
        "cityCode": "mtr",
        "cityName": "Montreal",
        "latitude": 45.5053,
        "longitude": -73.5525
      }
    },
    {
      "hostname": "ca-mtr-wg-301",
      "fqdn": "ca-mtr-wg-301.relays.mullvad.net",
      "source": "app-wireguard-v1",
      "active": true,
      "owned": false,
      "publicKey": "iV7uZuw8vbqrW/p4YhsxkIxXaUuI4Uj2hTl8TaJZfAA=",
      "endpointIpv4": "23.234.120.2",
      "endpointIpv6": "2607:9000:f00:2::f001",
      "multihopPort": 3601,
      "location": {
        "countryCode": "ca",
        "countryName": "Canada",
        "cityCode": "mtr",
        "cityName": "Montreal",
        "latitude": 45.5053,
        "longitude": -73.5525
      }
    },
    {
      "hostname": "ca-mtr-wg-302",
      "fqdn": "ca-mtr-wg-302.relays.mullvad.net",
      "source": "app-wireguard-v1",
      "active": true,
      "owned": false,
      "publicKey": "ihfPUEJ+SOFLzpb6ATGKX1/aAOA2MiTgm36yxmMdNUs=",
      "endpointIpv4": "23.234.120.127",
      "endpointIpv6": "2607:9000:f00:3::f001",
      "multihopPort": 3602,
      "location": {
        "countryCode": "ca",
        "countryName": "Canada",
        "cityCode": "mtr",
        "cityName": "Montreal",
        "latitude": 45.5053,
        "longitude": -73.5525
      }
    },
    {
      "hostname": "ca-mtr-wg-303",
      "fqdn": "ca-mtr-wg-303.relays.mullvad.net",
      "source": "app-wireguard-v1",
      "active": true,
      "owned": false,
      "publicKey": "jS8Wn97oET0rNFD9yIoJIahbVfMc6aubJq6G7+C1PBs=",
      "endpointIpv4": "23.234.121.2",
      "endpointIpv6": "2607:9000:f00:4::f01f",
      "multihopPort": 3603,
      "location": {
        "countryCode": "ca",
        "countryName": "Canada",
        "cityCode": "mtr",
        "cityName": "Montreal",
        "latitude": 45.5053,
        "longitude": -73.5525
      }
    },
    {
      "hostname": "ca-mtr-wg-304",
      "fqdn": "ca-mtr-wg-304.relays.mullvad.net",
      "source": "app-wireguard-v1",
      "active": true,
      "owned": false,
      "publicKey": "zY8NKWC/zDdNBBFFtH3acoZAJj2BD/AYZVOUiIRZric=",
      "endpointIpv4": "23.234.121.127",
      "endpointIpv6": "2607:9000:f00:5::f001",
      "multihopPort": 3604,
      "location": {
        "countryCode": "ca",
        "countryName": "Canada",
        "cityCode": "mtr",
        "cityName": "Montreal",
        "latitude": 45.5053,
        "longitude": -73.5525
      }
    },
    {
      "hostname": "ca-mtr-wg-305",
      "fqdn": "ca-mtr-wg-305.relays.mullvad.net",
      "source": "app-wireguard-v1",
      "active": true,
      "owned": false,
      "publicKey": "vHxqoUcH2dHqphHD6Kj74gf8+SldQ/S2XP1nbasTSkQ=",
      "endpointIpv4": "23.234.122.2",
      "endpointIpv6": "2607:9000:f00:6::f001",
      "multihopPort": 3605,
      "location": {
        "countryCode": "ca",
        "countryName": "Canada",
        "cityCode": "mtr",
        "cityName": "Montreal",
        "latitude": 45.5053,
        "longitude": -73.5525
      }
    },
    {
      "hostname": "ca-mtr-wg-306",
      "fqdn": "ca-mtr-wg-306.relays.mullvad.net",
      "source": "app-wireguard-v1",
      "active": true,
      "owned": false,
      "publicKey": "R4SOqKLtNuNSPg1L9/4mK56nahUN9uEFleuZorBXOjM=",
      "endpointIpv4": "23.234.122.127",
      "endpointIpv6": "2607:9000:f00:7::f001",
      "multihopPort": 3606,
      "location": {
        "countryCode": "ca",
        "countryName": "Canada",
        "cityCode": "mtr",
        "cityName": "Montreal",
        "latitude": 45.5053,
        "longitude": -73.5525
      }
    },
    {
      "hostname": "ca-mtr-wg-307",
      "fqdn": "ca-mtr-wg-307.relays.mullvad.net",
      "source": "app-wireguard-v1",
      "active": true,
      "owned": false,
      "publicKey": "MRbFe1jzuvCprXrnW2H6TpQnWx5MBwjYS+iIAhtrejc=",
      "endpointIpv4": "23.234.123.2",
      "endpointIpv6": "2607:9000:f00:8::f001",
      "multihopPort": 3607,
      "location": {
        "countryCode": "ca",
        "countryName": "Canada",
        "cityCode": "mtr",
        "cityName": "Montreal",
        "latitude": 45.5053,
        "longitude": -73.5525
      }
    },
    {
      "hostname": "ca-mtr-wg-308",
      "fqdn": "ca-mtr-wg-308.relays.mullvad.net",
      "source": "app-wireguard-v1",
      "active": true,
      "owned": false,
      "publicKey": "lyOeQQ2eGQgEdV+uH/S7UPOPMCsRWkDSQiZhPTUT0AI=",
      "endpointIpv4": "23.234.123.127",
      "endpointIpv6": "2607:9000:f00:9::f001",
      "multihopPort": 3608,
      "location": {
        "countryCode": "ca",
        "countryName": "Canada",
        "cityCode": "mtr",
        "cityName": "Montreal",
        "latitude": 45.5053,
        "longitude": -73.5525
      }
    },
    {
      "hostname": "ca-tor-wg-001",
      "fqdn": "ca-tor-wg-001.relays.mullvad.net",
      "source": "app-wireguard-v1",
      "active": true,
      "owned": false,
      "publicKey": "HjcUGVDXWdrRkaKNpc/8494RM5eICO6DPyrhCtTv9Ws=",
      "endpointIpv4": "178.249.214.2",
      "endpointIpv6": "2a02:6ea0:de08:1::f001",
      "multihopPort": 3489,
      "location": {
        "countryCode": "ca",
        "countryName": "Canada",
        "cityCode": "tor",
        "cityName": "Toronto",
        "latitude": 43.666667,
        "longitude": -79.416667
      }
    },
    {
      "hostname": "ca-tor-wg-002",
      "fqdn": "ca-tor-wg-002.relays.mullvad.net",
      "source": "app-wireguard-v1",
      "active": true,
      "owned": false,
      "publicKey": "iqZSgVlU9H67x/uYE5xsnzLCDXf7FL9iMfyKfl6WsV8=",
      "endpointIpv4": "178.249.214.15",
      "endpointIpv6": "2a02:6ea0:de08:2::a29f",
      "multihopPort": 3490,
      "location": {
        "countryCode": "ca",
        "countryName": "Canada",
        "cityCode": "tor",
        "cityName": "Toronto",
        "latitude": 43.666667,
        "longitude": -79.416667
      }
    },
    {
      "hostname": "ca-tor-wg-201",
      "fqdn": "ca-tor-wg-201.relays.mullvad.net",
      "source": "app-wireguard-v1",
      "active": true,
      "owned": false,
      "publicKey": "94nJF3WyWKsZQOFhWWco8cjBOrSYADsMSTeivfbWQyw=",
      "endpointIpv4": "23.234.84.2",
      "endpointIpv6": "2607:9000:600:31::f001",
      "multihopPort": 3081,
      "location": {
        "countryCode": "ca",
        "countryName": "Canada",
        "cityCode": "tor",
        "cityName": "Toronto",
        "latitude": 43.666667,
        "longitude": -79.416667
      }
    },
    {
      "hostname": "ca-tor-wg-202",
      "fqdn": "ca-tor-wg-202.relays.mullvad.net",
      "source": "app-wireguard-v1",
      "active": true,
      "owned": false,
      "publicKey": "vr/sAm+36c3N8jWfo14Sw6El0xJeSvu/soU/8JWSb3U=",
      "endpointIpv4": "23.234.84.127",
      "endpointIpv6": "2607:9000:600:32::f001",
      "multihopPort": 3364,
      "location": {
        "countryCode": "ca",
        "countryName": "Canada",
        "cityCode": "tor",
        "cityName": "Toronto",
        "latitude": 43.666667,
        "longitude": -79.416667
      }
    },
    {
      "hostname": "ca-tor-wg-203",
      "fqdn": "ca-tor-wg-203.relays.mullvad.net",
      "source": "app-wireguard-v1",
      "active": true,
      "owned": false,
      "publicKey": "kpXVJa66qgBFlwCmHx6siJT3R9afvtbjdDOTKkkbiUI=",
      "endpointIpv4": "23.234.85.2",
      "endpointIpv6": "2607:9000:600:33::f001",
      "multihopPort": 3365,
      "location": {
        "countryCode": "ca",
        "countryName": "Canada",
        "cityCode": "tor",
        "cityName": "Toronto",
        "latitude": 43.666667,
        "longitude": -79.416667
      }
    },
    {
      "hostname": "ca-tor-wg-204",
      "fqdn": "ca-tor-wg-204.relays.mullvad.net",
      "source": "app-wireguard-v1",
      "active": true,
      "owned": false,
      "publicKey": "APcoI2H2zdWIMdVYXslcJm4zzgePc4PESsDHgkm0UnQ=",
      "endpointIpv4": "23.234.85.127",
      "endpointIpv6": "2607:9000:600:34::f001",
      "multihopPort": 3366,
      "location": {
        "countryCode": "ca",
        "countryName": "Canada",
        "cityCode": "tor",
        "cityName": "Toronto",
        "latitude": 43.666667,
        "longitude": -79.416667
      }
    },
    {
      "hostname": "ca-tor-wg-205",
      "fqdn": "ca-tor-wg-205.relays.mullvad.net",
      "source": "app-wireguard-v1",
      "active": true,
      "owned": false,
      "publicKey": "iePZCguBaIxO/7gqQGDDYwl6YzMZj5910nK2Q9bDP14=",
      "endpointIpv4": "23.234.86.2",
      "endpointIpv6": "2607:9000:600:35::f001",
      "multihopPort": 3367,
      "location": {
        "countryCode": "ca",
        "countryName": "Canada",
        "cityCode": "tor",
        "cityName": "Toronto",
        "latitude": 43.666667,
        "longitude": -79.416667
      }
    },
    {
      "hostname": "ca-tor-wg-206",
      "fqdn": "ca-tor-wg-206.relays.mullvad.net",
      "source": "app-wireguard-v1",
      "active": true,
      "owned": false,
      "publicKey": "PGPyMyMPZ7Lue4pvFK7hlavToQ5FfBODmQBoiaUZ40I=",
      "endpointIpv4": "23.234.86.127",
      "endpointIpv6": "2607:9000:600:36::f001",
      "multihopPort": 3368,
      "location": {
        "countryCode": "ca",
        "countryName": "Canada",
        "cityCode": "tor",
        "cityName": "Toronto",
        "latitude": 43.666667,
        "longitude": -79.416667
      }
    },
    {
      "hostname": "ca-tor-wg-207",
      "fqdn": "ca-tor-wg-207.relays.mullvad.net",
      "source": "app-wireguard-v1",
      "active": true,
      "owned": false,
      "publicKey": "8VmxIxjz5W44ubaBuIt5JEngh7fKCvdmdG9WBN2oqhw=",
      "endpointIpv4": "23.234.87.2",
      "endpointIpv6": "2607:9000:600:37::f001",
      "multihopPort": 3369,
      "location": {
        "countryCode": "ca",
        "countryName": "Canada",
        "cityCode": "tor",
        "cityName": "Toronto",
        "latitude": 43.666667,
        "longitude": -79.416667
      }
    },
    {
      "hostname": "ca-van-wg-201",
      "fqdn": "ca-van-wg-201.relays.mullvad.net",
      "source": "app-wireguard-v1",
      "active": true,
      "owned": false,
      "publicKey": "hYbb2NQKB0g2RefngdHl3bfaLImUuzeVIv2i1VCVIlQ=",
      "endpointIpv4": "104.193.135.196",
      "endpointIpv6": "2606:9580:103:e::f001",
      "multihopPort": 3013,
      "location": {
        "countryCode": "ca",
        "countryName": "Canada",
        "cityCode": "van",
        "cityName": "Vancouver",
        "latitude": 49.25,
        "longitude": -123.133333
      }
    },
    {
      "hostname": "ca-van-wg-202",
      "fqdn": "ca-van-wg-202.relays.mullvad.net",
      "source": "app-wireguard-v1",
      "active": true,
      "owned": false,
      "publicKey": "wGqcNxXH7A3bSptHZo7Dfmymy/Y30Ea/Zd47UkyEbzo=",
      "endpointIpv4": "104.193.135.100",
      "endpointIpv6": "2606:9580:103:f::f001",
      "multihopPort": 3071,
      "location": {
        "countryCode": "ca",
        "countryName": "Canada",
        "cityCode": "van",
        "cityName": "Vancouver",
        "latitude": 49.25,
        "longitude": -123.133333
      }
    },
    {
      "hostname": "ca-van-wg-301",
      "fqdn": "ca-van-wg-301.relays.mullvad.net",
      "source": "app-wireguard-v1",
      "active": true,
      "owned": false,
      "publicKey": "BzYINbABQiSbRLDZIlmgsLgL88offQJCEH3JkcjRGUk=",
      "endpointIpv4": "149.22.81.194",
      "endpointIpv6": "2a02:6ea0:5100:1::f001",
      "multihopPort": 3319,
      "location": {
        "countryCode": "ca",
        "countryName": "Canada",
        "cityCode": "van",
        "cityName": "Vancouver",
        "latitude": 49.25,
        "longitude": -123.133333
      }
    },
    {
      "hostname": "ca-van-wg-302",
      "fqdn": "ca-van-wg-302.relays.mullvad.net",
      "source": "app-wireguard-v1",
      "active": true,
      "owned": false,
      "publicKey": "EOOkxbmbdHmjb8F45s33yKrIzKWH6lGIgJf2kTOxwFw=",
      "endpointIpv4": "149.22.81.207",
      "endpointIpv6": "2a02:6ea0:5100:2::f001",
      "multihopPort": 3320,
      "location": {
        "countryCode": "ca",
        "countryName": "Canada",
        "cityCode": "van",
        "cityName": "Vancouver",
        "latitude": 49.25,
        "longitude": -123.133333
      }
    },
    {
      "hostname": "ca-yyc-wg-201",
      "fqdn": "ca-yyc-wg-201.relays.mullvad.net",
      "source": "app-wireguard-v1",
      "active": true,
      "owned": false,
      "publicKey": "L4RcVwk0cJJp2u8O9+86sdyUpxfYnr+ME57Ex0RY1Wo=",
      "endpointIpv4": "38.240.225.36",
      "endpointIpv6": "2606:9580:438:32::b01f",
      "multihopPort": 3174,
      "location": {
        "countryCode": "ca",
        "countryName": "Canada",
        "cityCode": "yyc",
        "cityName": "Calgary",
        "latitude": 51.037007,
        "longitude": -114.058315
      }
    },
    {
      "hostname": "ca-yyc-wg-202",
      "fqdn": "ca-yyc-wg-202.relays.mullvad.net",
      "source": "app-wireguard-v1",
      "active": true,
      "owned": false,
      "publicKey": "u9J/fzrSqM2aEFjTs91KEKgBsaQ/I/4XkIP1Z/zYkXA=",
      "endpointIpv4": "38.240.225.68",
      "endpointIpv6": "2606:9580:438:64::b02f",
      "multihopPort": 3178,
      "location": {
        "countryCode": "ca",
        "countryName": "Canada",
        "cityCode": "yyc",
        "cityName": "Calgary",
        "latitude": 51.037007,
        "longitude": -114.058315
      }
    },
    {
      "hostname": "ch-zrh-wg-001",
      "fqdn": "ch-zrh-wg-001.relays.mullvad.net",
      "source": "app-wireguard-v1",
      "active": true,
      "owned": false,
      "publicKey": "/iivwlyqWqxQ0BVWmJRhcXIFdJeo0WbHQ/hZwuXaN3g=",
      "endpointIpv4": "193.32.127.66",
      "endpointIpv6": "2a03:1b20:a:f011::f001",
      "multihopPort": 3121,
      "location": {
        "countryCode": "ch",
        "countryName": "Switzerland",
        "cityCode": "zrh",
        "cityName": "Zurich",
        "latitude": 47.366667,
        "longitude": 8.55
      }
    },
    {
      "hostname": "ch-zrh-wg-002",
      "fqdn": "ch-zrh-wg-002.relays.mullvad.net",
      "source": "app-wireguard-v1",
      "active": true,
      "owned": false,
      "publicKey": "qcvI02LwBnTb7aFrOyZSWvg4kb7zNW9/+rS6alnWyFE=",
      "endpointIpv4": "193.32.127.67",
      "endpointIpv6": "2a03:1b20:a:f011::f101",
      "multihopPort": 3122,
      "location": {
        "countryCode": "ch",
        "countryName": "Switzerland",
        "cityCode": "zrh",
        "cityName": "Zurich",
        "latitude": 47.366667,
        "longitude": 8.55
      }
    },
    {
      "hostname": "ch-zrh-wg-003",
      "fqdn": "ch-zrh-wg-003.relays.mullvad.net",
      "source": "app-wireguard-v1",
      "active": true,
      "owned": false,
      "publicKey": "5Ms10UxGjCSzwImTrvEjcygsWY8AfMIdYyRvgFuTqH8=",
      "endpointIpv4": "193.32.127.68",
      "endpointIpv6": "2a03:1b20:a:f011::f201",
      "multihopPort": 3123,
      "location": {
        "countryCode": "ch",
        "countryName": "Switzerland",
        "cityCode": "zrh",
        "cityName": "Zurich",
        "latitude": 47.366667,
        "longitude": 8.55
      }
    },
    {
      "hostname": "ch-zrh-wg-004",
      "fqdn": "ch-zrh-wg-004.relays.mullvad.net",
      "source": "app-wireguard-v1",
      "active": true,
      "owned": false,
      "publicKey": "C3jAgPirUZG6sNYe4VuAgDEYunENUyG34X42y+SBngQ=",
      "endpointIpv4": "193.32.127.69",
      "endpointIpv6": "2a03:1b20:a:f011::f301",
      "multihopPort": 3124,
      "location": {
        "countryCode": "ch",
        "countryName": "Switzerland",
        "cityCode": "zrh",
        "cityName": "Zurich",
        "latitude": 47.366667,
        "longitude": 8.55
      }
    },
    {
      "hostname": "ch-zrh-wg-005",
      "fqdn": "ch-zrh-wg-005.relays.mullvad.net",
      "source": "app-wireguard-v1",
      "active": true,
      "owned": false,
      "publicKey": "dV/aHhwG0fmp0XuvSvrdWjCtdyhPDDFiE/nuv/1xnRM=",
      "endpointIpv4": "193.32.127.70",
      "endpointIpv6": "2a03:1b20:a:f011::f401",
      "multihopPort": 3125,
      "location": {
        "countryCode": "ch",
        "countryName": "Switzerland",
        "cityCode": "zrh",
        "cityName": "Zurich",
        "latitude": 47.366667,
        "longitude": 8.55
      }
    },
    {
      "hostname": "ch-zrh-wg-006",
      "fqdn": "ch-zrh-wg-006.relays.mullvad.net",
      "source": "app-wireguard-v1",
      "active": true,
      "owned": false,
      "publicKey": "wDjbvO94t0UI1RlimpEFFv7kJ6DngthvuRX6uBN0wAA=",
      "endpointIpv4": "193.32.127.84",
      "endpointIpv6": "2a03:1b20:a:f011::f601",
      "multihopPort": 3241,
      "location": {
        "countryCode": "ch",
        "countryName": "Switzerland",
        "cityCode": "zrh",
        "cityName": "Zurich",
        "latitude": 47.366667,
        "longitude": 8.55
      }
    },
    {
      "hostname": "ch-zrh-wg-201",
      "fqdn": "ch-zrh-wg-201.relays.mullvad.net",
      "source": "app-wireguard-v1",
      "active": true,
      "owned": false,
      "publicKey": "66NPINP4+1AlojLP0J6O9GxdloiegNnGMV4Yit9Kzg0=",
      "endpointIpv4": "179.43.189.66",
      "endpointIpv6": "2a02:29b8:dc01:1832::a1f",
      "multihopPort": 3105,
      "location": {
        "countryCode": "ch",
        "countryName": "Switzerland",
        "cityCode": "zrh",
        "cityName": "Zurich",
        "latitude": 47.366667,
        "longitude": 8.55
      }
    },
    {
      "hostname": "ch-zrh-wg-202",
      "fqdn": "ch-zrh-wg-202.relays.mullvad.net",
      "source": "app-wireguard-v1",
      "active": true,
      "owned": false,
      "publicKey": "gSLSfY2zNFRczxHndeda258z+ayMvd7DqTlKYlKWJUo=",
      "endpointIpv4": "46.19.136.226",
      "endpointIpv6": "2a02:29b8:dc01:1831::f002",
      "multihopPort": 3106,
      "location": {
        "countryCode": "ch",
        "countryName": "Switzerland",
        "cityCode": "zrh",
        "cityName": "Zurich",
        "latitude": 47.366667,
        "longitude": 8.55
      }
    },
    {
      "hostname": "ch-zrh-wg-401",
      "fqdn": "ch-zrh-wg-401.relays.mullvad.net",
      "source": "app-wireguard-v1",
      "active": true,
      "owned": false,
      "publicKey": "45ud3I5O6GmPXTrMJiqkiPMI/ubucDqzGaiq3CHJXk8=",
      "endpointIpv4": "138.199.6.194",
      "endpointIpv6": "2a02:6ea0:d406:1::a18f",
      "multihopPort": 3467,
      "location": {
        "countryCode": "ch",
        "countryName": "Switzerland",
        "cityCode": "zrh",
        "cityName": "Zurich",
        "latitude": 47.366667,
        "longitude": 8.55
      }
    },
    {
      "hostname": "ch-zrh-wg-402",
      "fqdn": "ch-zrh-wg-402.relays.mullvad.net",
      "source": "app-wireguard-v1",
      "active": true,
      "owned": false,
      "publicKey": "7VCMEE+Oljm/qKfQJSUCOYPtRSwdOnuPyqo5Vob+GRY=",
      "endpointIpv4": "138.199.6.207",
      "endpointIpv6": "2a02:6ea0:d406:2::a19f",
      "multihopPort": 3468,
      "location": {
        "countryCode": "ch",
        "countryName": "Switzerland",
        "cityCode": "zrh",
        "cityName": "Zurich",
        "latitude": 47.366667,
        "longitude": 8.55
      }
    },
    {
      "hostname": "ch-zrh-wg-403",
      "fqdn": "ch-zrh-wg-403.relays.mullvad.net",
      "source": "app-wireguard-v1",
      "active": true,
      "owned": false,
      "publicKey": "Jmhds6oPu6/j94hjllJCIaKLDyWu6V+ZNRrVVFhWJkI=",
      "endpointIpv4": "138.199.6.220",
      "endpointIpv6": "2a02:6ea0:d406:3::a20f",
      "multihopPort": 3469,
      "location": {
        "countryCode": "ch",
        "countryName": "Switzerland",
        "cityCode": "zrh",
        "cityName": "Zurich",
        "latitude": 47.366667,
        "longitude": 8.55
      }
    },
    {
      "hostname": "ch-zrh-wg-404",
      "fqdn": "ch-zrh-wg-404.relays.mullvad.net",
      "source": "app-wireguard-v1",
      "active": true,
      "owned": false,
      "publicKey": "zfNQqDyPmSUY8+20wxACe/wpk4Q5jpZm5iBqjXj2hk8=",
      "endpointIpv4": "138.199.6.233",
      "endpointIpv6": "2a02:6ea0:d406:4::a21f",
      "multihopPort": 3470,
      "location": {
        "countryCode": "ch",
        "countryName": "Switzerland",
        "cityCode": "zrh",
        "cityName": "Zurich",
        "latitude": 47.366667,
        "longitude": 8.55
      }
    },
    {
      "hostname": "ch-zrh-wg-501",
      "fqdn": "ch-zrh-wg-501.relays.mullvad.net",
      "source": "app-wireguard-v1",
      "active": true,
      "owned": false,
      "publicKey": "HQzvIK88XSsRujBlwoYvvZ7CMKwiYuOqLXyuckkTPHg=",
      "endpointIpv4": "146.70.134.98",
      "endpointIpv6": "2001:ac8:28:a7::a36f",
      "multihopPort": 3520,
      "location": {
        "countryCode": "ch",
        "countryName": "Switzerland",
        "cityCode": "zrh",
        "cityName": "Zurich",
        "latitude": 47.366667,
        "longitude": 8.55
      }
    },
    {
      "hostname": "ch-zrh-wg-502",
      "fqdn": "ch-zrh-wg-502.relays.mullvad.net",
      "source": "app-wireguard-v1",
      "active": true,
      "owned": false,
      "publicKey": "TOA/MQWS6TzJVEa//GPyaET5d52VpHO2isS4786GGwU=",
      "endpointIpv4": "146.70.126.162",
      "endpointIpv6": "2001:ac8:28:a1::f001",
      "multihopPort": 3514,
      "location": {
        "countryCode": "ch",
        "countryName": "Switzerland",
        "cityCode": "zrh",
        "cityName": "Zurich",
        "latitude": 47.366667,
        "longitude": 8.55
      }
    },
    {
      "hostname": "ch-zrh-wg-503",
      "fqdn": "ch-zrh-wg-503.relays.mullvad.net",
      "source": "app-wireguard-v1",
      "active": true,
      "owned": false,
      "publicKey": "ApOUMLFcpTpj/sDAMub0SvASFdsSWtsy+vvw/nWvEmY=",
      "endpointIpv4": "146.70.126.194",
      "endpointIpv6": "2001:ac8:28:a2::f001",
      "multihopPort": 3515,
      "location": {
        "countryCode": "ch",
        "countryName": "Switzerland",
        "cityCode": "zrh",
        "cityName": "Zurich",
        "latitude": 47.366667,
        "longitude": 8.55
      }
    },
    {
      "hostname": "ch-zrh-wg-504",
      "fqdn": "ch-zrh-wg-504.relays.mullvad.net",
      "source": "app-wireguard-v1",
      "active": true,
      "owned": false,
      "publicKey": "I5XiRYHPmxnmGtPJ90Yio6QXL441C/+kYV6UH6wU+jk=",
      "endpointIpv4": "146.70.126.226",
      "endpointIpv6": "2001:ac8:28:a3::f001",
      "multihopPort": 3516,
      "location": {
        "countryCode": "ch",
        "countryName": "Switzerland",
        "cityCode": "zrh",
        "cityName": "Zurich",
        "latitude": 47.366667,
        "longitude": 8.55
      }
    },
    {
      "hostname": "ch-zrh-wg-505",
      "fqdn": "ch-zrh-wg-505.relays.mullvad.net",
      "source": "app-wireguard-v1",
      "active": true,
      "owned": false,
      "publicKey": "dc16Gcid7jLcHRD7uHma1myX3vWhEy/bZIBtqZw0B2I=",
      "endpointIpv4": "146.70.134.2",
      "endpointIpv6": "2001:ac8:28:a4::a33f",
      "multihopPort": 3517,
      "location": {
        "countryCode": "ch",
        "countryName": "Switzerland",
        "cityCode": "zrh",
        "cityName": "Zurich",
        "latitude": 47.366667,
        "longitude": 8.55
      }
    },
    {
      "hostname": "ch-zrh-wg-506",
      "fqdn": "ch-zrh-wg-506.relays.mullvad.net",
      "source": "app-wireguard-v1",
      "active": true,
      "owned": false,
      "publicKey": "7xVJLzW0nfmACr1VMc+/SiSMFh0j0EI3DrU/8Fnj1zM=",
      "endpointIpv4": "146.70.134.34",
      "endpointIpv6": "2001:ac8:28:a5::a34f",
      "multihopPort": 3518,
      "location": {
        "countryCode": "ch",
        "countryName": "Switzerland",
        "cityCode": "zrh",
        "cityName": "Zurich",
        "latitude": 47.366667,
        "longitude": 8.55
      }
    },
    {
      "hostname": "ch-zrh-wg-507",
      "fqdn": "ch-zrh-wg-507.relays.mullvad.net",
      "source": "app-wireguard-v1",
      "active": true,
      "owned": false,
      "publicKey": "RNTpvmWTyjNf8w9qdP+5XlFnyAk5TrVvT+CRa8a0zys=",
      "endpointIpv4": "146.70.134.66",
      "endpointIpv6": "2001:ac8:28:a6::a35f",
      "multihopPort": 3519,
      "location": {
        "countryCode": "ch",
        "countryName": "Switzerland",
        "cityCode": "zrh",
        "cityName": "Zurich",
        "latitude": 47.366667,
        "longitude": 8.55
      }
    },
    {
      "hostname": "cl-scl-wg-001",
      "fqdn": "cl-scl-wg-001.relays.mullvad.net",
      "source": "app-wireguard-v1",
      "active": true,
      "owned": false,
      "publicKey": "03qeK7CSn6wcMzfqilmVt6Tf81VZIPWnSG04euSkyxM=",
      "endpointIpv4": "149.88.104.2",
      "endpointIpv6": "2a02:6ea0:fc02:2::f001",
      "multihopPort": 3274,
      "location": {
        "countryCode": "cl",
        "countryName": "Chile",
        "cityCode": "scl",
        "cityName": "Santiago",
        "latitude": -33.448891,
        "longitude": -70.669266
      }
    },
    {
      "hostname": "cl-scl-wg-002",
      "fqdn": "cl-scl-wg-002.relays.mullvad.net",
      "source": "app-wireguard-v1",
      "active": true,
      "owned": false,
      "publicKey": "rn9O+cXj0WQgZAkGCoYvvWgzaB5GcOaVfke3WKsp1Ro=",
      "endpointIpv4": "149.88.104.15",
      "endpointIpv6": "2a02:6ea0:fc02:3::f101",
      "multihopPort": 3275,
      "location": {
        "countryCode": "cl",
        "countryName": "Chile",
        "cityCode": "scl",
        "cityName": "Santiago",
        "latitude": -33.448891,
        "longitude": -70.669266
      }
    },
    {
      "hostname": "co-bog-wg-001",
      "fqdn": "co-bog-wg-001.relays.mullvad.net",
      "source": "app-wireguard-v1",
      "active": true,
      "owned": false,
      "publicKey": "iaMa84nCHK+v4TnQH4h2rxkqwwxemORXM12VbJDRZSU=",
      "endpointIpv4": "154.47.16.34",
      "endpointIpv6": "2a02:6ea0:f101:1::f001",
      "multihopPort": 3216,
      "location": {
        "countryCode": "co",
        "countryName": "Colombia",
        "cityCode": "bog",
        "cityName": "Bogota",
        "latitude": 4.624335,
        "longitude": -74.063644
      }
    },
    {
      "hostname": "co-bog-wg-002",
      "fqdn": "co-bog-wg-002.relays.mullvad.net",
      "source": "app-wireguard-v1",
      "active": true,
      "owned": false,
      "publicKey": "IZDwbG9C/NrOOGVUrn+fDaPr8ZwD/yhvST7XWGk1ln8=",
      "endpointIpv4": "154.47.16.47",
      "endpointIpv6": "2a02:6ea0:f101:2::f001",
      "multihopPort": 3217,
      "location": {
        "countryCode": "co",
        "countryName": "Colombia",
        "cityCode": "bog",
        "cityName": "Bogota",
        "latitude": 4.624335,
        "longitude": -74.063644
      }
    },
    {
      "hostname": "cy-nic-wg-001",
      "fqdn": "cy-nic-wg-001.relays.mullvad.net",
      "source": "app-wireguard-v1",
      "active": true,
      "owned": false,
      "publicKey": "Ae9YcQjcQT+W8MU0EhKXx6KPWo6ticS1NI91e+Zy5GA=",
      "endpointIpv4": "195.47.194.131",
      "endpointIpv6": "2a06:3040:f:601::f001",
      "multihopPort": 3337,
      "location": {
        "countryCode": "cy",
        "countryName": "Cyprus",
        "cityCode": "nic",
        "cityName": "Nicosia",
        "latitude": 35.17025,
        "longitude": 33.3587
      }
    },
    {
      "hostname": "cy-nic-wg-002",
      "fqdn": "cy-nic-wg-002.relays.mullvad.net",
      "source": "app-wireguard-v1",
      "active": true,
      "owned": false,
      "publicKey": "LOd1SY9YCHGiJUVT+XdYRdORu6ZMw4CqOKQBW2ElLg8=",
      "endpointIpv4": "195.47.194.161",
      "endpointIpv6": "2a06:3040:f:601::f101",
      "multihopPort": 3338,
      "location": {
        "countryCode": "cy",
        "countryName": "Cyprus",
        "cityCode": "nic",
        "cityName": "Nicosia",
        "latitude": 35.17025,
        "longitude": 33.3587
      }
    },
    {
      "hostname": "cz-prg-wg-101",
      "fqdn": "cz-prg-wg-101.relays.mullvad.net",
      "source": "app-wireguard-v1",
      "active": true,
      "owned": false,
      "publicKey": "tWVga+pS/Ztrbx/L/PBlaWPGhkI3PCPBzbQlCeXWqn8=",
      "endpointIpv4": "146.70.129.98",
      "endpointIpv6": "2001:ac8:33:c::a01f",
      "multihopPort": 3541,
      "location": {
        "countryCode": "cz",
        "countryName": "Czech Republic",
        "cityCode": "prg",
        "cityName": "Prague",
        "latitude": 50.083333,
        "longitude": 14.466667
      }
    },
    {
      "hostname": "cz-prg-wg-102",
      "fqdn": "cz-prg-wg-102.relays.mullvad.net",
      "source": "app-wireguard-v1",
      "active": true,
      "owned": false,
      "publicKey": "cRCJ0vULwKRbTfzuo9W+fIt0fJGQE7DLvojIiURIpiI=",
      "endpointIpv4": "146.70.129.130",
      "endpointIpv6": "2001:ac8:33:d::a02f",
      "multihopPort": 3542,
      "location": {
        "countryCode": "cz",
        "countryName": "Czech Republic",
        "cityCode": "prg",
        "cityName": "Prague",
        "latitude": 50.083333,
        "longitude": 14.466667
      }
    },
    {
      "hostname": "cz-prg-wg-201",
      "fqdn": "cz-prg-wg-201.relays.mullvad.net",
      "source": "app-wireguard-v1",
      "active": true,
      "owned": false,
      "publicKey": "5FZW+fNA2iVBSY99HFl+KjGc9AFVNE+UFAedLNhu8lc=",
      "endpointIpv4": "178.249.209.162",
      "endpointIpv6": "2a02:6ea0:c201:1::f001",
      "multihopPort": 3565,
      "location": {
        "countryCode": "cz",
        "countryName": "Czech Republic",
        "cityCode": "prg",
        "cityName": "Prague",
        "latitude": 50.083333,
        "longitude": 14.466667
      }
    },
    {
      "hostname": "cz-prg-wg-202",
      "fqdn": "cz-prg-wg-202.relays.mullvad.net",
      "source": "app-wireguard-v1",
      "active": true,
      "owned": false,
      "publicKey": "ReGrGPKDHri64D7qeXmgcLzjsTJ0B/yM7eekFz1P/34=",
      "endpointIpv4": "178.249.209.175",
      "endpointIpv6": "2a02:6ea0:c201:1::f101",
      "multihopPort": 3566,
      "location": {
        "countryCode": "cz",
        "countryName": "Czech Republic",
        "cityCode": "prg",
        "cityName": "Prague",
        "latitude": 50.083333,
        "longitude": 14.466667
      }
    },
    {
      "hostname": "de-ber-wg-001",
      "fqdn": "de-ber-wg-001.relays.mullvad.net",
      "source": "app-wireguard-v1",
      "active": true,
      "owned": false,
      "publicKey": "0qSP0VxoIhEhRK+fAHVvmfRdjPs2DmmpOCNLFP/7cGw=",
      "endpointIpv4": "193.32.248.66",
      "endpointIpv6": "2a03:1b20:b:f011::a01f",
      "multihopPort": 3007,
      "location": {
        "countryCode": "de",
        "countryName": "Germany",
        "cityCode": "ber",
        "cityName": "Berlin",
        "latitude": 52.520008,
        "longitude": 13.404954
      }
    },
    {
      "hostname": "de-ber-wg-002",
      "fqdn": "de-ber-wg-002.relays.mullvad.net",
      "source": "app-wireguard-v1",
      "active": true,
      "owned": false,
      "publicKey": "8ov1Ws0ut3ixWDh9Chp7/WLVn9qC6/WVHtcBcuWBlgo=",
      "endpointIpv4": "193.32.248.67",
      "endpointIpv6": "2a03:1b20:b:f011::a02f",
      "multihopPort": 3008,
      "location": {
        "countryCode": "de",
        "countryName": "Germany",
        "cityCode": "ber",
        "cityName": "Berlin",
        "latitude": 52.520008,
        "longitude": 13.404954
      }
    },
    {
      "hostname": "de-ber-wg-003",
      "fqdn": "de-ber-wg-003.relays.mullvad.net",
      "source": "app-wireguard-v1",
      "active": true,
      "owned": false,
      "publicKey": "USrMatdHiCL5AKdVMpHuYgWuMiK/GHPwRB3Xx00FhU0=",
      "endpointIpv4": "193.32.248.68",
      "endpointIpv6": "2a03:1b20:b:f011::a03f",
      "multihopPort": 3009,
      "location": {
        "countryCode": "de",
        "countryName": "Germany",
        "cityCode": "ber",
        "cityName": "Berlin",
        "latitude": 52.520008,
        "longitude": 13.404954
      }
    },
    {
      "hostname": "de-ber-wg-004",
      "fqdn": "de-ber-wg-004.relays.mullvad.net",
      "source": "app-wireguard-v1",
      "active": true,
      "owned": false,
      "publicKey": "6PchzRRxzeeHdNLyn3Nz0gmN7pUyjoZMpKmKzJRL4GM=",
      "endpointIpv4": "193.32.248.69",
      "endpointIpv6": "2a03:1b20:b:f011::a04f",
      "multihopPort": 3055,
      "location": {
        "countryCode": "de",
        "countryName": "Germany",
        "cityCode": "ber",
        "cityName": "Berlin",
        "latitude": 52.520008,
        "longitude": 13.404954
      }
    },
    {
      "hostname": "de-ber-wg-005",
      "fqdn": "de-ber-wg-005.relays.mullvad.net",
      "source": "app-wireguard-v1",
      "active": true,
      "owned": false,
      "publicKey": "I4Y7e8LrtBC/7DLpUgRd5k+IZk+whOFVAZgbSivoiBI=",
      "endpointIpv4": "193.32.248.70",
      "endpointIpv6": "2a03:1b20:b:f011::a05f",
      "multihopPort": 3179,
      "location": {
        "countryCode": "de",
        "countryName": "Germany",
        "cityCode": "ber",
        "cityName": "Berlin",
        "latitude": 52.520008,
        "longitude": 13.404954
      }
    },
    {
      "hostname": "de-ber-wg-006",
      "fqdn": "de-ber-wg-006.relays.mullvad.net",
      "source": "app-wireguard-v1",
      "active": true,
      "owned": false,
      "publicKey": "eprzkkkSbXCANngQDo305DIAvkKAnZaN71IpTNaOoTk=",
      "endpointIpv4": "193.32.248.71",
      "endpointIpv6": "2a03:1b20:b:f011::a06f",
      "multihopPort": 3196,
      "location": {
        "countryCode": "de",
        "countryName": "Germany",
        "cityCode": "ber",
        "cityName": "Berlin",
        "latitude": 52.520008,
        "longitude": 13.404954
      }
    },
    {
      "hostname": "de-ber-wg-007",
      "fqdn": "de-ber-wg-007.relays.mullvad.net",
      "source": "app-wireguard-v1",
      "active": true,
      "owned": false,
      "publicKey": "/ejdxiEsmYbeXXCN6UzvzJ0U/mLuB6baIfQRYKYHWzU=",
      "endpointIpv4": "193.32.248.75",
      "endpointIpv6": "2a03:1b20:b:f011::f701",
      "multihopPort": 3239,
      "location": {
        "countryCode": "de",
        "countryName": "Germany",
        "cityCode": "ber",
        "cityName": "Berlin",
        "latitude": 52.520008,
        "longitude": 13.404954
      }
    },
    {
      "hostname": "de-ber-wg-008",
      "fqdn": "de-ber-wg-008.relays.mullvad.net",
      "source": "app-wireguard-v1",
      "active": true,
      "owned": false,
      "publicKey": "qwXs9gwhwqWgRtLjPiZ+zMphZJA3OStsn/aXcCAd5m0=",
      "endpointIpv4": "193.32.248.74",
      "endpointIpv6": "2a03:1b20:b:f011::f801",
      "multihopPort": 3101,
      "location": {
        "countryCode": "de",
        "countryName": "Germany",
        "cityCode": "ber",
        "cityName": "Berlin",
        "latitude": 52.520008,
        "longitude": 13.404954
      }
    },
    {
      "hostname": "de-dus-wg-001",
      "fqdn": "de-dus-wg-001.relays.mullvad.net",
      "source": "app-wireguard-v1",
      "active": true,
      "owned": false,
      "publicKey": "ku1NYeOAGbY65YL/JKZhrqVzDJKXQiVj9USXbfkOBA0=",
      "endpointIpv4": "185.254.75.3",
      "endpointIpv6": "2a03:d9c0:3000::a20f",
      "multihopPort": 3030,
      "location": {
        "countryCode": "de",
        "countryName": "Germany",
        "cityCode": "dus",
        "cityName": "Dusseldorf",
        "latitude": 51.233334,
        "longitude": 6.783333
      }
    },
    {
      "hostname": "de-dus-wg-002",
      "fqdn": "de-dus-wg-002.relays.mullvad.net",
      "source": "app-wireguard-v1",
      "active": true,
      "owned": false,
      "publicKey": "TPAIPTgu9jIitgX1Bz5xMCZJ9pRRZTdtZEOIxArO0Hc=",
      "endpointIpv4": "185.254.75.4",
      "endpointIpv6": "2a03:d9c0:3000::a21f",
      "multihopPort": 3091,
      "location": {
        "countryCode": "de",
        "countryName": "Germany",
        "cityCode": "dus",
        "cityName": "Dusseldorf",
        "latitude": 51.233334,
        "longitude": 6.783333
      }
    },
    {
      "hostname": "de-dus-wg-003",
      "fqdn": "de-dus-wg-003.relays.mullvad.net",
      "source": "app-wireguard-v1",
      "active": true,
      "owned": false,
      "publicKey": "XgSe9UwEV4JJNPPzFFOVYS6scMTL4DeNlwqBl32lDw0=",
      "endpointIpv4": "185.254.75.5",
      "endpointIpv6": "2a03:d9c0:3000::a22f",
      "multihopPort": 3092,
      "location": {
        "countryCode": "de",
        "countryName": "Germany",
        "cityCode": "dus",
        "cityName": "Dusseldorf",
        "latitude": 51.233334,
        "longitude": 6.783333
      }
    },
    {
      "hostname": "de-fra-wg-001",
      "fqdn": "de-fra-wg-001.relays.mullvad.net",
      "source": "app-wireguard-v1",
      "active": true,
      "owned": false,
      "publicKey": "HQHCrq4J6bSpdW1fI5hR/bvcrYa6HgGgwaa5ZY749ik=",
      "endpointIpv4": "185.213.155.73",
      "endpointIpv6": "2a03:1b20:6:f011::f001",
      "multihopPort": 3053,
      "location": {
        "countryCode": "de",
        "countryName": "Germany",
        "cityCode": "fra",
        "cityName": "Frankfurt",
        "latitude": 50.110924,
        "longitude": 8.682127
      }
    },
    {
      "hostname": "de-fra-wg-002",
      "fqdn": "de-fra-wg-002.relays.mullvad.net",
      "source": "app-wireguard-v1",
      "active": true,
      "owned": false,
      "publicKey": "s1c/NsfnqnwQSxao70DY4Co69AFT9e0h88IFuMD5mjs=",
      "endpointIpv4": "185.213.155.74",
      "endpointIpv6": "2a03:1b20:6:f011::f101",
      "multihopPort": 3054,
      "location": {
        "countryCode": "de",
        "countryName": "Germany",
        "cityCode": "fra",
        "cityName": "Frankfurt",
        "latitude": 50.110924,
        "longitude": 8.682127
      }
    },
    {
      "hostname": "de-fra-wg-003",
      "fqdn": "de-fra-wg-003.relays.mullvad.net",
      "source": "app-wireguard-v1",
      "active": true,
      "owned": false,
      "publicKey": "vVQKs2TeTbdAvl3sH16UWLSESncXAj0oBaNuFIUkLVk=",
      "endpointIpv4": "185.209.196.73",
      "endpointIpv6": "2a03:1b20:6:f011::f201",
      "multihopPort": 3277,
      "location": {
        "countryCode": "de",
        "countryName": "Germany",
        "cityCode": "fra",
        "cityName": "Frankfurt",
        "latitude": 50.110924,
        "longitude": 8.682127
      }
    },
    {
      "hostname": "de-fra-wg-004",
      "fqdn": "de-fra-wg-004.relays.mullvad.net",
      "source": "app-wireguard-v1",
      "active": true,
      "owned": false,
      "publicKey": "tzYLWgBdwrbbBCXYHRSoYIho4dHtrm+8bdONU1I8xzc=",
      "endpointIpv4": "185.209.196.74",
      "endpointIpv6": "2a03:1b20:6:f011::f301",
      "multihopPort": 3280,
      "location": {
        "countryCode": "de",
        "countryName": "Germany",
        "cityCode": "fra",
        "cityName": "Frankfurt",
        "latitude": 50.110924,
        "longitude": 8.682127
      }
    },
    {
      "hostname": "de-fra-wg-005",
      "fqdn": "de-fra-wg-005.relays.mullvad.net",
      "source": "app-wireguard-v1",
      "active": true,
      "owned": false,
      "publicKey": "tpobOO6t18CzHjOg0S3RlZJMxd2tz4+BnRYS7NrjTnM=",
      "endpointIpv4": "185.209.196.75",
      "endpointIpv6": "2a03:1b20:6:f011::f401",
      "multihopPort": 3281,
      "location": {
        "countryCode": "de",
        "countryName": "Germany",
        "cityCode": "fra",
        "cityName": "Frankfurt",
        "latitude": 50.110924,
        "longitude": 8.682127
      }
    },
    {
      "hostname": "de-fra-wg-006",
      "fqdn": "de-fra-wg-006.relays.mullvad.net",
      "source": "app-wireguard-v1",
      "active": true,
      "owned": false,
      "publicKey": "nAF0wrLG2+avwQfqxnXhBGPUBCvc3QCqWKH4nK5PfEU=",
      "endpointIpv4": "185.209.196.76",
      "endpointIpv6": "2a03:1b20:6:f011::f501",
      "multihopPort": 3222,
      "location": {
        "countryCode": "de",
        "countryName": "Germany",
        "cityCode": "fra",
        "cityName": "Frankfurt",
        "latitude": 50.110924,
        "longitude": 8.682127
      }
    },
    {
      "hostname": "de-fra-wg-007",
      "fqdn": "de-fra-wg-007.relays.mullvad.net",
      "source": "app-wireguard-v1",
      "active": true,
      "owned": false,
      "publicKey": "mTmrSuXmTnIC9l2Ur3/QgodGrVEhhIE3pRwOHZpiYys=",
      "endpointIpv4": "185.209.196.77",
      "endpointIpv6": "2a03:1b20:6:f011::f601",
      "multihopPort": 3278,
      "location": {
        "countryCode": "de",
        "countryName": "Germany",
        "cityCode": "fra",
        "cityName": "Frankfurt",
        "latitude": 50.110924,
        "longitude": 8.682127
      }
    },
    {
      "hostname": "de-fra-wg-008",
      "fqdn": "de-fra-wg-008.relays.mullvad.net",
      "source": "app-wireguard-v1",
      "active": true,
      "owned": false,
      "publicKey": "+DuVLLPwGNlfZFoI24PRPdaTrO4i+WPDlYaOVcavHDo=",
      "endpointIpv4": "185.209.196.78",
      "endpointIpv6": "2a03:1b20:6:f011::f701",
      "multihopPort": 3279,
      "location": {
        "countryCode": "de",
        "countryName": "Germany",
        "cityCode": "fra",
        "cityName": "Frankfurt",
        "latitude": 50.110924,
        "longitude": 8.682127
      }
    },
    {
      "hostname": "de-fra-wg-009",
      "fqdn": "de-fra-wg-009.relays.mullvad.net",
      "source": "app-wireguard-v1",
      "active": true,
      "owned": false,
      "publicKey": "flq7zR8W5FxouHBuZoTRHY0A0qFEMQZF5uAgV4+sHVw=",
      "endpointIpv4": "185.213.155.72",
      "endpointIpv6": "2a03:1b20:6:f011::f901",
      "multihopPort": 3240,
      "location": {
        "countryCode": "de",
        "countryName": "Germany",
        "cityCode": "fra",
        "cityName": "Frankfurt",
        "latitude": 50.110924,
        "longitude": 8.682127
      }
    },
    {
      "hostname": "de-fra-wg-101",
      "fqdn": "de-fra-wg-101.relays.mullvad.net",
      "source": "app-wireguard-v1",
      "active": true,
      "owned": false,
      "publicKey": "wxbDlI3xb+Cc05XKb4usdKSzKe1byK7brmsHU2DJB14=",
      "endpointIpv4": "146.70.117.2",
      "endpointIpv6": "2001:ac8:20:270:1::f001",
      "multihopPort": 3492,
      "location": {
        "countryCode": "de",
        "countryName": "Germany",
        "cityCode": "fra",
        "cityName": "Frankfurt",
        "latitude": 50.110924,
        "longitude": 8.682127
      }
    },
    {
      "hostname": "de-fra-wg-102",
      "fqdn": "de-fra-wg-102.relays.mullvad.net",
      "source": "app-wireguard-v1",
      "active": true,
      "owned": false,
      "publicKey": "inG8qBhgEFhcs2EZsT9PezeWBI6+9p8tXeo0BojhpBQ=",
      "endpointIpv4": "146.70.117.130",
      "endpointIpv6": "2001:ac8:20:270:2::f001",
      "multihopPort": 3493,
      "location": {
        "countryCode": "de",
        "countryName": "Germany",
        "cityCode": "fra",
        "cityName": "Frankfurt",
        "latitude": 50.110924,
        "longitude": 8.682127
      }
    },
    {
      "hostname": "de-fra-wg-103",
      "fqdn": "de-fra-wg-103.relays.mullvad.net",
      "source": "app-wireguard-v1",
      "active": true,
      "owned": false,
      "publicKey": "V7g+GpphZny5CWgDdClejTQX3ImrYFRh+CVETeOWRBU=",
      "endpointIpv4": "135.136.19.2",
      "endpointIpv6": "2001:ac8:20:271::f001",
      "multihopPort": 3495,
      "location": {
        "countryCode": "de",
        "countryName": "Germany",
        "cityCode": "fra",
        "cityName": "Frankfurt",
        "latitude": 50.110924,
        "longitude": 8.682127
      }
    },
    {
      "hostname": "de-fra-wg-104",
      "fqdn": "de-fra-wg-104.relays.mullvad.net",
      "source": "app-wireguard-v1",
      "active": true,
      "owned": false,
      "publicKey": "WPaUZB1eO0W/F4GMDk8uVgqQfS5q4P9F53/pbLmlDjs=",
      "endpointIpv4": "135.136.19.130",
      "endpointIpv6": "2001:ac8:20:272::f001",
      "multihopPort": 3496,
      "location": {
        "countryCode": "de",
        "countryName": "Germany",
        "cityCode": "fra",
        "cityName": "Frankfurt",
        "latitude": 50.110924,
        "longitude": 8.682127
      }
    },
    {
      "hostname": "de-fra-wg-301",
      "fqdn": "de-fra-wg-301.relays.mullvad.net",
      "source": "app-wireguard-v1",
      "active": true,
      "owned": false,
      "publicKey": "dNKRyh2MkJGZdg9jyUJtf9w5GHjX3+/fYatg+xi9TUM=",
      "endpointIpv4": "194.36.25.3",
      "endpointIpv6": "2a07:fe00:1::a23f",
      "multihopPort": 3284,
      "location": {
        "countryCode": "de",
        "countryName": "Germany",
        "cityCode": "fra",
        "cityName": "Frankfurt",
        "latitude": 50.110924,
        "longitude": 8.682127
      }
    },
    {
      "hostname": "de-fra-wg-302",
      "fqdn": "de-fra-wg-302.relays.mullvad.net",
      "source": "app-wireguard-v1",
      "active": true,
      "owned": false,
      "publicKey": "A3DbIgPycEJhJ1fQ4zzcajLOKTZsJMeawjdPQiWav20=",
      "endpointIpv4": "194.36.25.18",
      "endpointIpv6": "2a07:fe00:1::a24f",
      "multihopPort": 3285,
      "location": {
        "countryCode": "de",
        "countryName": "Germany",
        "cityCode": "fra",
        "cityName": "Frankfurt",
        "latitude": 50.110924,
        "longitude": 8.682127
      }
    },
    {
      "hostname": "de-fra-wg-303",
      "fqdn": "de-fra-wg-303.relays.mullvad.net",
      "source": "app-wireguard-v1",
      "active": true,
      "owned": false,
      "publicKey": "2P+9SjwVCEnMDnBiYfZtQLq9p2S2TFhCM0xJBoevYk4=",
      "endpointIpv4": "194.36.25.33",
      "endpointIpv6": "2a07:fe00:1::a25f",
      "multihopPort": 3286,
      "location": {
        "countryCode": "de",
        "countryName": "Germany",
        "cityCode": "fra",
        "cityName": "Frankfurt",
        "latitude": 50.110924,
        "longitude": 8.682127
      }
    },
    {
      "hostname": "de-fra-wg-401",
      "fqdn": "de-fra-wg-401.relays.mullvad.net",
      "source": "app-wireguard-v1",
      "active": true,
      "owned": false,
      "publicKey": "AbM8fnQWmmX6Nv0Tz68LigPbGkamJgNjxgzPfENOdXU=",
      "endpointIpv4": "169.150.201.2",
      "endpointIpv6": "2a02:6ea0:c762:1::a35f",
      "multihopPort": 3504,
      "location": {
        "countryCode": "de",
        "countryName": "Germany",
        "cityCode": "fra",
        "cityName": "Frankfurt",
        "latitude": 50.110924,
        "longitude": 8.682127
      }
    },
    {
      "hostname": "de-fra-wg-402",
      "fqdn": "de-fra-wg-402.relays.mullvad.net",
      "source": "app-wireguard-v1",
      "active": true,
      "owned": false,
      "publicKey": "6/PBbPtoeWpJA+HZc9Iqg/PPQWD7mGVvZdwQlr1vtRk=",
      "endpointIpv4": "169.150.201.15",
      "endpointIpv6": "2a02:6ea0:c762:2::a36f",
      "multihopPort": 3505,
      "location": {
        "countryCode": "de",
        "countryName": "Germany",
        "cityCode": "fra",
        "cityName": "Frankfurt",
        "latitude": 50.110924,
        "longitude": 8.682127
      }
    },
    {
      "hostname": "de-fra-wg-403",
      "fqdn": "de-fra-wg-403.relays.mullvad.net",
      "source": "app-wireguard-v1",
      "active": true,
      "owned": false,
      "publicKey": "HWzSNMbQOQafkVp68B7aLRirhNJ6x5Wjw8/y7oUuHW0=",
      "endpointIpv4": "169.150.201.28",
      "endpointIpv6": "2a02:6ea0:c762:3::a37f",
      "multihopPort": 3506,
      "location": {
        "countryCode": "de",
        "countryName": "Germany",
        "cityCode": "fra",
        "cityName": "Frankfurt",
        "latitude": 50.110924,
        "longitude": 8.682127
      }
    },
    {
      "hostname": "dk-cph-wg-001",
      "fqdn": "dk-cph-wg-001.relays.mullvad.net",
      "source": "app-wireguard-v1",
      "active": true,
      "owned": false,
      "publicKey": "egl+0TkpFU39F5O6r6+hIBMPQLOa8/t5CymOZV6CC3Y=",
      "endpointIpv4": "45.129.56.67",
      "endpointIpv6": "2a03:1b20:8:f011::f001",
      "multihopPort": 3064,
      "location": {
        "countryCode": "dk",
        "countryName": "Denmark",
        "cityCode": "cph",
        "cityName": "Copenhagen",
        "latitude": 55.666667,
        "longitude": 12.583333
      }
    },
    {
      "hostname": "dk-cph-wg-002",
      "fqdn": "dk-cph-wg-002.relays.mullvad.net",
      "source": "app-wireguard-v1",
      "active": true,
      "owned": false,
      "publicKey": "R5LUBgM/1UjeAR4lt+L/yA30Gee6/VqVZ9eAB3ZTajs=",
      "endpointIpv4": "45.129.56.68",
      "endpointIpv6": "2a03:1b20:8:f011::f101",
      "multihopPort": 3017,
      "location": {
        "countryCode": "dk",
        "countryName": "Denmark",
        "cityCode": "cph",
        "cityName": "Copenhagen",
        "latitude": 55.666667,
        "longitude": 12.583333
      }
    },
    {
      "hostname": "dk-cph-wg-101",
      "fqdn": "dk-cph-wg-101.relays.mullvad.net",
      "source": "app-wireguard-v1",
      "active": true,
      "owned": false,
      "publicKey": "CrS2Bd2IEVpPlg4DzHwfSCoqpNjrM35oiVdoUVKoxiY=",
      "endpointIpv4": "149.88.109.72",
      "endpointIpv6": "2a02:6ea0:470b:0:1::f001",
      "multihopPort": 3598,
      "location": {
        "countryCode": "dk",
        "countryName": "Denmark",
        "cityCode": "cph",
        "cityName": "Copenhagen",
        "latitude": 55.666667,
        "longitude": 12.583333
      }
    },
    {
      "hostname": "dk-cph-wg-102",
      "fqdn": "dk-cph-wg-102.relays.mullvad.net",
      "source": "app-wireguard-v1",
      "active": true,
      "owned": false,
      "publicKey": "oFSh/6OxGDc8LY+kCj9SNebPphDGM9UIeln0cseILxs=",
      "endpointIpv4": "149.88.109.73",
      "endpointIpv6": "2a02:6ea0:470b:0:2::f001",
      "multihopPort": 3599,
      "location": {
        "countryCode": "dk",
        "countryName": "Denmark",
        "cityCode": "cph",
        "cityName": "Copenhagen",
        "latitude": 55.666667,
        "longitude": 12.583333
      }
    },
    {
      "hostname": "dk-cph-wg-103",
      "fqdn": "dk-cph-wg-103.relays.mullvad.net",
      "source": "app-wireguard-v1",
      "active": true,
      "owned": false,
      "publicKey": "qwH+UVu3UKbsYiHsvuXmdbvDUs/5pMV6nSCV5eNk7Q8=",
      "endpointIpv4": "149.88.109.74",
      "endpointIpv6": "2a02:6ea0:470b:0:3::f001",
      "multihopPort": 3600,
      "location": {
        "countryCode": "dk",
        "countryName": "Denmark",
        "cityCode": "cph",
        "cityName": "Copenhagen",
        "latitude": 55.666667,
        "longitude": 12.583333
      }
    },
    {
      "hostname": "dk-cph-wg-401",
      "fqdn": "dk-cph-wg-401.relays.mullvad.net",
      "source": "app-wireguard-v1",
      "active": true,
      "owned": false,
      "publicKey": "Jjml2TSqKlgzW6UzPiJszaun743QYpyl5jQk8UOQYg0=",
      "endpointIpv4": "146.70.197.194",
      "endpointIpv6": "2001:ac8:37:97::f001",
      "multihopPort": 3229,
      "location": {
        "countryCode": "dk",
        "countryName": "Denmark",
        "cityCode": "cph",
        "cityName": "Copenhagen",
        "latitude": 55.666667,
        "longitude": 12.583333
      }
    },
    {
      "hostname": "dk-cph-wg-402",
      "fqdn": "dk-cph-wg-402.relays.mullvad.net",
      "source": "app-wireguard-v1",
      "active": true,
      "owned": false,
      "publicKey": "ML0NcFPqy+x+ZJg7y9vfh77hXAOtgueIqp1j+CJVrXM=",
      "endpointIpv4": "146.70.197.130",
      "endpointIpv6": "2001:ac8:37:96::f001",
      "multihopPort": 3230,
      "location": {
        "countryCode": "dk",
        "countryName": "Denmark",
        "cityCode": "cph",
        "cityName": "Copenhagen",
        "latitude": 55.666667,
        "longitude": 12.583333
      }
    },
    {
      "hostname": "ee-tll-wg-001",
      "fqdn": "ee-tll-wg-001.relays.mullvad.net",
      "source": "app-wireguard-v1",
      "active": true,
      "owned": false,
      "publicKey": "bdq37KtfoG1Tm7yQcfitdRyGeZOn/c7PwLN+LgG/6nA=",
      "endpointIpv4": "194.127.167.67",
      "endpointIpv6": "2a07:d880:2::a01f",
      "multihopPort": 3138,
      "location": {
        "countryCode": "ee",
        "countryName": "Estonia",
        "cityCode": "tll",
        "cityName": "Tallinn",
        "latitude": 59.436961,
        "longitude": 24.753575
      }
    },
    {
      "hostname": "ee-tll-wg-002",
      "fqdn": "ee-tll-wg-002.relays.mullvad.net",
      "source": "app-wireguard-v1",
      "active": true,
      "owned": false,
      "publicKey": "vqGmmcERr/PAKDzy6Dxax8g4150rC93kmKYabZuAzws=",
      "endpointIpv4": "194.127.167.87",
      "endpointIpv6": "2a07:d880:2::a02f",
      "multihopPort": 3139,
      "location": {
        "countryCode": "ee",
        "countryName": "Estonia",
        "cityCode": "tll",
        "cityName": "Tallinn",
        "latitude": 59.436961,
        "longitude": 24.753575
      }
    },
    {
      "hostname": "ee-tll-wg-003",
      "fqdn": "ee-tll-wg-003.relays.mullvad.net",
      "source": "app-wireguard-v1",
      "active": true,
      "owned": false,
      "publicKey": "+8dUgpD7YA4wMPnRQkO7EI7AeYd30QPMKh/hOaaGIXY=",
      "endpointIpv4": "194.127.167.107",
      "endpointIpv6": "2a07:d880:2::a03f",
      "multihopPort": 3140,
      "location": {
        "countryCode": "ee",
        "countryName": "Estonia",
        "cityCode": "tll",
        "cityName": "Tallinn",
        "latitude": 59.436961,
        "longitude": 24.753575
      }
    },